[
  {
    "latitude": 55.70877,
    "longitude": 37.634479,
    "address": "Даниловская набережная, дом 2, корпус 1",
    "is_noisy": true,
    "complaint_frequency": "низкая",
    "total_complaints": 1,
    "noisy_complaints": 1,
    "noise_sources": [
      "автотранспорт",
      "Строительные работы"
    ],
    "last_check_date": "06.09.2016",
    "noise_ratio": 1.0
  },
  {
    "latitude": 55.708658,
    "longitude": 37.927329,
    "address": "Сочинская улица, дом 2",
    "is_noisy": true,
    "complaint_frequency": "низкая",
    "total_complaints": 1,
    "noisy_complaints": 1,
    "noise_sources": [
      "автотранспорт",
      "Автотранспорт"
    ],
    "last_check_date": "07.09.2016",
    "noise_ratio": 1.0
  },
  {
    "latitude": 55.687259,
    "longitude": 37.751071,
    "address": "Краснодонская улица, дом 2, корпус 3",
    "is_noisy": true,
    "complaint_frequency": "низкая",
    "total_complaints": 1,
    "noisy_complaints": 1,
    "noise_sources": [
      "автотранспорт",
      "Кафе, ресторан, клуб, Музыка",
      "кафе"
    ],
    "last_check_date": "08.09.2016",
    "noise_ratio": 1.0
  },
  {
    "latitude": 55.705239,
    "longitude": 37.737426,
    "address": "8-я улица Текстильщиков, дом 2, корпус 1",
    "is_noisy": true,
    "complaint_frequency": "низкая",
    "total_complaints": 1,
    "noisy_complaints": 1,
    "noise_sources": [
      "Генераторная установка",
      "автотранспорт"
    ],
    "last_check_date": "09.09.2016",
    "noise_ratio": 1.0
  },
  {
    "latitude": 55.755616,
    "longitude": 37.68067,
    "address": "Волочаевская улица, дом 14, корпус 1",
    "is_noisy": true,
    "complaint_frequency": "низкая",
    "total_complaints": 1,
    "noisy_complaints": 1,
    "noise_sources": [
      "Вентиляционные системы"
    ],
    "last_check_date": "09.09.2016",
    "noise_ratio": 1.0
  },
  {
    "latitude": 55.817299,
    "longitude": 37.692959,
    "address": "Краснобогатырская улица, дом 9",
    "is_noisy": true,
    "complaint_frequency": "низкая",
    "total_complaints": 1,
    "noisy_complaints": 1,
    "noise_sources": [
      "автотранспорт",
      "Автомойка"
    ],
    "last_check_date": "01.09.2016",
    "noise_ratio": 1.0
  },
  {
    "latitude": 55.788485,
    "longitude": 37.740318,
    "address": "Фортунатовская улица, дом 17",
    "is_noisy": true,
    "complaint_frequency": "низкая",
    "total_complaints": 1,
    "noisy_complaints": 1,
    "noise_sources": [
      "Железнодорожный транспорт"
    ],
    "last_check_date": "01.09.2016",
    "noise_ratio": 1.0
  },
  {
    "latitude": 55.707278,
    "longitude": 37.744253,
    "address": "11-я улица Текстильщиков, дом 12",
    "is_noisy": true,
    "complaint_frequency": "низкая",
    "total_complaints": 1,
    "noisy_complaints": 1,
    "noise_sources": [
      "автотранспорт",
      "Автотранспорт"
    ],
    "last_check_date": "13.09.2016",
    "noise_ratio": 1.0
  },
  {
    "latitude": 55.641051,
    "longitude": 37.796858,
    "address": "2-ой квартал Капотня, дом 10",
    "is_noisy": true,
    "complaint_frequency": "низкая",
    "total_complaints": 1,
    "noisy_complaints": 1,
    "noise_sources": [
      "автотранспорт",
      "Промышленное предприятие"
    ],
    "last_check_date": "01.09.2016",
    "noise_ratio": 1.0
  },
  {
    "latitude": 55.742549,
    "longitude": 37.799275,
    "address": "Перовская улица, дом 66, корпус 1",
    "is_noisy": true,
    "complaint_frequency": "средняя",
    "total_complaints": 4,
    "noisy_complaints": 4,
    "noise_sources": [
      "Железнодорожный транспорт",
      "Строительные работы",
      "Сортировочные станции РЖД"
    ],
    "last_check_date": "28.09.2017",
    "noise_ratio": 1.0
  },
  {
    "latitude": 55.757977,
    "longitude": 37.775308,
    "address": "1-я Владимирская улица, дом 15, корпус 1",
    "is_noisy": true,
    "complaint_frequency": "низкая",
    "total_complaints": 1,
    "noisy_complaints": 1,
    "noise_sources": [
      "Погрузочно-разгрузочные работы встроенно-пристроенных магазинов",
      "автотранспорт"
    ],
    "last_check_date": "13.09.2016",
    "noise_ratio": 1.0
  },
  {
    "latitude": 55.845263,
    "longitude": 37.340494,
    "address": "Улица Барышиха, дом 25, корпус 2",
    "is_noisy": true,
    "complaint_frequency": "низкая",
    "total_complaints": 1,
    "noisy_complaints": 1,
    "noise_sources": [
      "Строительные работы"
    ],
    "last_check_date": "14.09.2016",
    "noise_ratio": 1.0
  },
  {
    "latitude": 55.791177,
    "longitude": 37.520411,
    "address": "Проезд Берёзовой Рощи, дом 12",
    "is_noisy": true,
    "complaint_frequency": "низкая",
    "total_complaints": 1,
    "noisy_complaints": 1,
    "noise_sources": [
      "Строительные работы"
    ],
    "last_check_date": "07.09.2016",
    "noise_ratio": 1.0
  },
  {
    "latitude": 55.64874,
    "longitude": 37.39224,
    "address": "улица Богданова, дом 54",
    "is_noisy": true,
    "complaint_frequency": "низкая",
    "total_complaints": 2,
    "noisy_complaints": 2,
    "noise_sources": [
      "Строительные работы"
    ],
    "last_check_date": "26.03.2017",
    "noise_ratio": 1.0
  },
  {
    "latitude": 55.867935,
    "longitude": 37.498052,
    "address": "Клинская улица, дом 15",
    "is_noisy": false,
    "complaint_frequency": "низкая",
    "total_complaints": 1,
    "noisy_complaints": 0,
    "noise_sources": [
      "Дорожно-ремонтные работы",
      "дорожно-ремонтные работы"
    ],
    "last_check_date": "07.09.2016",
    "noise_ratio": 0.0
  },
  {
    "latitude": 55.766344,
    "longitude": 37.726754,
    "address": "Буракова улица, дом 1, корпус 1",
    "is_noisy": true,
    "complaint_frequency": "низкая",
    "total_complaints": 1,
    "noisy_complaints": 1,
    "noise_sources": [
      "Вентиляционные системы",
      "автотранспорт"
    ],
    "last_check_date": "20.09.2016",
    "noise_ratio": 1.0
  },
  {
    "latitude": 55.602235,
    "longitude": 37.666638,
    "address": "Бирюлёвская улица, дом 1, корпус 1",
    "is_noisy": false,
    "complaint_frequency": "низкая",
    "total_complaints": 1,
    "noisy_complaints": 0,
    "noise_sources": [
      "строительные работы",
      "Строительные работы"
    ],
    "last_check_date": "01.09.2016",
    "noise_ratio": 0.0
  },
  {
    "latitude": 55.580981,
    "longitude": 37.644998,
    "address": "Булатниковская улица, дом 6",
    "is_noisy": false,
    "complaint_frequency": "низкая",
    "total_complaints": 1,
    "noisy_complaints": 0,
    "noise_sources": [
      "Дорожно-ремонтные работы",
      "дорожно-ремонтные работы"
    ],
    "last_check_date": "01.09.2016",
    "noise_ratio": 0.0
  },
  {
    "latitude": 55.598924,
    "longitude": 37.722352,
    "address": "Каширское шоссе, дом 138",
    "is_noisy": true,
    "complaint_frequency": "низкая",
    "total_complaints": 2,
    "noisy_complaints": 2,
    "noise_sources": [
      "автотранспорт",
      "Строительные работы",
      "Автотранспорт"
    ],
    "last_check_date": "24.01.2017",
    "noise_ratio": 1.0
  },
  {
    "latitude": 55.621928,
    "longitude": 37.70541,
    "address": "Каширское шоссе, дом 84, корпус 1",
    "is_noisy": false,
    "complaint_frequency": "низкая",
    "total_complaints": 2,
    "noisy_complaints": 1,
    "noise_sources": [
      "строительные работы",
      "Строительные работы"
    ],
    "last_check_date": "02.03.2017",
    "noise_ratio": 0.5
  },
  {
    "latitude": 55.607229,
    "longitude": 37.655661,
    "address": "6-я Радиальная улица, дом 5, корпус 1",
    "is_noisy": true,
    "complaint_frequency": "низкая",
    "total_complaints": 1,
    "noisy_complaints": 1,
    "noise_sources": [
      "автотранспорт",
      "Строительные работы"
    ],
    "last_check_date": "01.09.2016",
    "noise_ratio": 1.0
  },
  {
    "latitude": 55.600481,
    "longitude": 37.658059,
    "address": "Элеваторная улица, дом 6, корпус 1",
    "is_noisy": true,
    "complaint_frequency": "низкая",
    "total_complaints": 1,
    "noisy_complaints": 1,
    "noise_sources": [
      "Строительные работы"
    ],
    "last_check_date": "01.09.2016",
    "noise_ratio": 1.0
  },
  {
    "latitude": 55.76559,
    "longitude": 37.70564,
    "address": "Наличная улица, дом 5",
    "is_noisy": false,
    "complaint_frequency": "высокая",
    "total_complaints": 8,
    "noisy_complaints": 3,
    "noise_sources": [
      "строительные работы",
      "автотранспорт",
      "Строительные работы"
    ],
    "last_check_date": "31.03.2017",
    "noise_ratio": 0.38
  },
  {
    "latitude": 55.773241,
    "longitude": 37.603657,
    "address": "Долгоруковская улица, дом 5",
    "is_noisy": true,
    "complaint_frequency": "низкая",
    "total_complaints": 1,
    "noisy_complaints": 1,
    "noise_sources": [
      "Дорожно-ремонтные работы"
    ],
    "last_check_date": "06.09.2016",
    "noise_ratio": 1.0
  },
  {
    "latitude": 55.772517,
    "longitude": 37.672073,
    "address": "Новорязанская улица, дом 31/7, корпус 1",
    "is_noisy": false,
    "complaint_frequency": "низкая",
    "total_complaints": 1,
    "noisy_complaints": 0,
    "noise_sources": [
      "строительные работы",
      "Строительные работы"
    ],
    "last_check_date": "06.09.2016",
    "noise_ratio": 0.0
  },
  {
    "latitude": 55.710963,
    "longitude": 37.645153,
    "address": "3-й Павелецкий проезд, дом 5",
    "is_noisy": false,
    "complaint_frequency": "низкая",
    "total_complaints": 1,
    "noisy_complaints": 0,
    "noise_sources": [
      "строительные работы",
      "Строительные работы"
    ],
    "last_check_date": "06.09.2016",
    "noise_ratio": 0.0
  },
  {
    "latitude": 55.72638,
    "longitude": 37.566701,
    "address": "Малая Пироговская улица, дом 14",
    "is_noisy": true,
    "complaint_frequency": "низкая",
    "total_complaints": 1,
    "noisy_complaints": 1,
    "noise_sources": [
      "Строительные работы"
    ],
    "last_check_date": "06.09.2016",
    "noise_ratio": 1.0
  },
  {
    "latitude": 55.710033,
    "longitude": 37.604726,
    "address": "1-й Рощинский проезд, дом 4, корпус 2",
    "is_noisy": true,
    "complaint_frequency": "низкая",
    "total_complaints": 1,
    "noisy_complaints": 1,
    "noise_sources": [
      "Строительные работы"
    ],
    "last_check_date": "06.09.2016",
    "noise_ratio": 1.0
  },
  {
    "latitude": 55.743355,
    "longitude": 37.579924,
    "address": "Ружейный переулок, дом 4, строение 1",
    "is_noisy": false,
    "complaint_frequency": "низкая",
    "total_complaints": 1,
    "noisy_complaints": 0,
    "noise_sources": [
      "строительные работы",
      "Строительные работы"
    ],
    "last_check_date": "06.09.2016",
    "noise_ratio": 0.0
  },
  {
    "latitude": 55.777742,
    "longitude": 37.706793,
    "address": "Семёновская набережная, дом 2/1, корпус 2",
    "is_noisy": true,
    "complaint_frequency": "низкая",
    "total_complaints": 1,
    "noisy_complaints": 1,
    "noise_sources": [
      "автотранспорт",
      "Строительные работы"
    ],
    "last_check_date": "06.09.2016",
    "noise_ratio": 1.0
  },
  {
    "latitude": 55.759785,
    "longitude": 37.593731,
    "address": "Спиридоновка ул., д. 9",
    "is_noisy": true,
    "complaint_frequency": "низкая",
    "total_complaints": 1,
    "noisy_complaints": 1,
    "noise_sources": [
      "Генераторная установка",
      "автотранспорт"
    ],
    "last_check_date": "06.09.2016",
    "noise_ratio": 1.0
  },
  {
    "latitude": 55.741794,
    "longitude": 37.582538,
    "address": "Смоленский бульвар, дом 15",
    "is_noisy": false,
    "complaint_frequency": "низкая",
    "total_complaints": 2,
    "noisy_complaints": 0,
    "noise_sources": [
      "строительные работы",
      "Строительные работы"
    ],
    "last_check_date": "13.06.2017",
    "noise_ratio": 0.0
  },
  {
    "latitude": 55.712502,
    "longitude": 37.596803,
    "address": "улица Стасовой, 10, корпус 3",
    "is_noisy": false,
    "complaint_frequency": "низкая",
    "total_complaints": 1,
    "noisy_complaints": 0,
    "noise_sources": [
      "строительные работы",
      "Строительные работы"
    ],
    "last_check_date": "06.09.2016",
    "noise_ratio": 0.0
  },
  {
    "latitude": 55.758544,
    "longitude": 37.794594,
    "address": "Новогиреевская улица, дом 20/34, корпус 2",
    "is_noisy": false,
    "complaint_frequency": "низкая",
    "total_complaints": 1,
    "noisy_complaints": 0,
    "noise_sources": [
      "строительные работы",
      "Строительные работы"
    ],
    "last_check_date": "12.09.2016",
    "noise_ratio": 0.0
  },
  {
    "latitude": 55.770011,
    "longitude": 37.833491,
    "address": "Саянская улица, дом 11, корпус 2",
    "is_noisy": false,
    "complaint_frequency": "низкая",
    "total_complaints": 1,
    "noisy_complaints": 0,
    "noise_sources": [
      "строительные работы",
      "Строительные работы"
    ],
    "last_check_date": "12.09.2016",
    "noise_ratio": 0.0
  },
  {
    "latitude": 55.742286,
    "longitude": 37.757494,
    "address": "улица Аносова, дом 9",
    "is_noisy": true,
    "complaint_frequency": "низкая",
    "total_complaints": 1,
    "noisy_complaints": 1,
    "noise_sources": [
      "Строительные работы"
    ],
    "last_check_date": "13.09.2016",
    "noise_ratio": 1.0
  },
  {
    "latitude": 55.751031,
    "longitude": 37.783868,
    "address": "2-я Владимирская улица, дом 36/21",
    "is_noisy": false,
    "complaint_frequency": "низкая",
    "total_complaints": 1,
    "noisy_complaints": 0,
    "noise_sources": [
      "строительные работы",
      "Строительные работы"
    ],
    "last_check_date": "13.09.2016",
    "noise_ratio": 0.0
  },
  {
    "latitude": 55.821178,
    "longitude": 37.581191,
    "address": "Яблочкова ул., д. 18",
    "is_noisy": true,
    "complaint_frequency": "низкая",
    "total_complaints": 1,
    "noisy_complaints": 1,
    "noise_sources": [
      "автотранспорт",
      "Автотранспорт"
    ],
    "last_check_date": "14.09.2016",
    "noise_ratio": 1.0
  },
  {
    "latitude": 55.809641,
    "longitude": 37.708006,
    "address": "2-я Прогонная улица, дом 10",
    "is_noisy": true,
    "complaint_frequency": "низкая",
    "total_complaints": 1,
    "noisy_complaints": 1,
    "noise_sources": [
      "Погрузочно-разгрузочные работы встроенно-пристроенных магазинов"
    ],
    "last_check_date": "29.09.2016",
    "noise_ratio": 1.0
  },
  {
    "latitude": 55.817345,
    "longitude": 37.401177,
    "address": "Исаковского ул., д. 6, корп. 3",
    "is_noisy": true,
    "complaint_frequency": "низкая",
    "total_complaints": 1,
    "noisy_complaints": 1,
    "noise_sources": [
      "автотранспорт",
      "Автотранспорт"
    ],
    "last_check_date": "16.09.2016",
    "noise_ratio": 1.0
  },
  {
    "latitude": 55.759588,
    "longitude": 37.786734,
    "address": "3-я Владимирская улица, дом 16",
    "is_noisy": false,
    "complaint_frequency": "низкая",
    "total_complaints": 1,
    "noisy_complaints": 0,
    "noise_sources": [
      "Дорожно-ремонтные работы",
      "дорожно-ремонтные работы"
    ],
    "last_check_date": "13.09.2016",
    "noise_ratio": 0.0
  },
  {
    "latitude": 55.71128,
    "longitude": 37.880491,
    "address": "улица Дмитриевского, дом 1",
    "is_noisy": true,
    "complaint_frequency": "низкая",
    "total_complaints": 2,
    "noisy_complaints": 2,
    "noise_sources": [
      "Строительные работы"
    ],
    "last_check_date": "13.09.2016",
    "noise_ratio": 1.0
  },
  {
    "latitude": 55.755697,
    "longitude": 37.667555,
    "address": "Сыромятнический 4-й пер., д. 3/5, стр. 4",
    "is_noisy": false,
    "complaint_frequency": "низкая",
    "total_complaints": 2,
    "noisy_complaints": 1,
    "noise_sources": [
      "строительные работы",
      "Строительные работы",
      "Массово-развлекательное мероприятие, Музыка"
    ],
    "last_check_date": "16.09.2016",
    "noise_ratio": 0.5
  },
  {
    "latitude": 55.729123,
    "longitude": 37.772649,
    "address": "Зарайская улица, дом 31",
    "is_noisy": true,
    "complaint_frequency": "низкая",
    "total_complaints": 1,
    "noisy_complaints": 1,
    "noise_sources": [
      "автотранспорт",
      "Строительные работы"
    ],
    "last_check_date": "13.09.2016",
    "noise_ratio": 1.0
  },
  {
    "latitude": 55.717994,
    "longitude": 37.572369,
    "address": "Хамовнический Вал ул., д. 16",
    "is_noisy": true,
    "complaint_frequency": "низкая",
    "total_complaints": 1,
    "noisy_complaints": 1,
    "noise_sources": [
      "автотранспорт",
      "Железнодорожный транспорт"
    ],
    "last_check_date": "14.09.2016",
    "noise_ratio": 1.0
  },
  {
    "latitude": 55.715373,
    "longitude": 37.826161,
    "address": "Косинская улица, дом 28, корпус 2",
    "is_noisy": false,
    "complaint_frequency": "высокая",
    "total_complaints": 6,
    "noisy_complaints": 3,
    "noise_sources": [
      "Автотранспорт, Железнодорожный транспорт",
      "Строительные работы",
      "строительные работы",
      "Железнодорожный транспорт",
      "автотранспорт"
    ],
    "last_check_date": "27.10.2018",
    "noise_ratio": 0.5
  },
  {
    "latitude": 55.733847,
    "longitude": 37.632943,
    "address": "Новокузнецкая ул., д. 30, стр. 2",
    "is_noisy": false,
    "complaint_frequency": "низкая",
    "total_complaints": 2,
    "noisy_complaints": 1,
    "noise_sources": [
      "строительные работы",
      "Вентиляционные системы",
      "Строительные работы"
    ],
    "last_check_date": "06.09.2016",
    "noise_ratio": 0.5
  },
  {
    "latitude": 55.671387,
    "longitude": 37.477992,
    "address": "улица Коштоянца, дом 47, корпус 2",
    "is_noisy": true,
    "complaint_frequency": "низкая",
    "total_complaints": 1,
    "noisy_complaints": 1,
    "noise_sources": [
      "автотранспорт",
      "Массово-развлекательное мероприятие, Музыка"
    ],
    "last_check_date": "20.09.2016",
    "noise_ratio": 1.0
  },
  {
    "latitude": 55.74415,
    "longitude": 37.75428,
    "address": "Мастеровая улица, дом 17/1, корпус 1",
    "is_noisy": true,
    "complaint_frequency": "низкая",
    "total_complaints": 2,
    "noisy_complaints": 2,
    "noise_sources": [
      "автотранспорт",
      "Строительные работы"
    ],
    "last_check_date": "19.04.2017",
    "noise_ratio": 1.0
  },
  {
    "latitude": 55.703748,
    "longitude": 37.820538,
    "address": "Ферганская улица, дом 24",
    "is_noisy": false,
    "complaint_frequency": "средняя",
    "total_complaints": 4,
    "noisy_complaints": 2,
    "noise_sources": [
      "строительные работы",
      "Строительные работы"
    ],
    "last_check_date": "21.05.2017",
    "noise_ratio": 0.5
  },
  {
    "latitude": 55.665817,
    "longitude": 37.568129,
    "address": "улица Цюрупы, дом 15, корпус 3",
    "is_noisy": true,
    "complaint_frequency": "низкая",
    "total_complaints": 1,
    "noisy_complaints": 1,
    "noise_sources": [
      "Вентиляционные системы"
    ],
    "last_check_date": "01.09.2016",
    "noise_ratio": 1.0
  },
  {
    "latitude": 55.710281,
    "longitude": 37.805778,
    "address": "Ферганская улица, дом 9, корпус 1",
    "is_noisy": false,
    "complaint_frequency": "низкая",
    "total_complaints": 1,
    "noisy_complaints": 0,
    "noise_sources": [
      "строительные работы",
      "Строительные работы"
    ],
    "last_check_date": "13.09.2016",
    "noise_ratio": 0.0
  },
  {
    "latitude": 55.821628,
    "longitude": 37.514904,
    "address": "улица Зои и Александра Космодемьянских, дом 20",
    "is_noisy": true,
    "complaint_frequency": "низкая",
    "total_complaints": 2,
    "noisy_complaints": 2,
    "noise_sources": [
      "автотранспорт",
      "Трамваи"
    ],
    "last_check_date": "20.09.2016",
    "noise_ratio": 1.0
  },
  {
    "latitude": 55.736235,
    "longitude": 37.671849,
    "address": "Абельмановская улица, дом 7",
    "is_noisy": false,
    "complaint_frequency": "низкая",
    "total_complaints": 1,
    "noisy_complaints": 0,
    "noise_sources": [
      "Дорожно-ремонтные работы",
      "дорожно-ремонтные работы"
    ],
    "last_check_date": "21.09.2016",
    "noise_ratio": 0.0
  },
  {
    "latitude": 55.849448,
    "longitude": 37.443173,
    "address": "Химкинский бул., д. 21",
    "is_noisy": true,
    "complaint_frequency": "низкая",
    "total_complaints": 1,
    "noisy_complaints": 1,
    "noise_sources": [
      "автотранспорт",
      "Массово-развлекательное мероприятие"
    ],
    "last_check_date": "27.09.2016",
    "noise_ratio": 1.0
  },
  {
    "latitude": 55.724168,
    "longitude": 37.617205,
    "address": "4-й Добрынинский переулок, дом 1/9, строение 1",
    "is_noisy": true,
    "complaint_frequency": "низкая",
    "total_complaints": 1,
    "noisy_complaints": 1,
    "noise_sources": [
      "автотранспорт",
      "Строительные работы"
    ],
    "last_check_date": "21.09.2016",
    "noise_ratio": 1.0
  },
  {
    "latitude": 55.695174,
    "longitude": 37.545995,
    "address": "Молодежная улица, дом 6",
    "is_noisy": true,
    "complaint_frequency": "низкая",
    "total_complaints": 1,
    "noisy_complaints": 1,
    "noise_sources": [
      "автотранспорт",
      "Другие источники"
    ],
    "last_check_date": "02.09.2016",
    "noise_ratio": 1.0
  },
  {
    "latitude": 55.758411,
    "longitude": 37.820384,
    "address": "улица Большая Полянка, дом 28, корпус 1",
    "is_noisy": false,
    "complaint_frequency": "низкая",
    "total_complaints": 2,
    "noisy_complaints": 0,
    "noise_sources": [
      "строительные работы",
      "Строительные работы"
    ],
    "last_check_date": "21.10.2016",
    "noise_ratio": 0.0
  },
  {
    "latitude": 55.764592,
    "longitude": 37.589841,
    "address": "Садовая-Кудринская улица, дом 28-30",
    "is_noisy": false,
    "complaint_frequency": "низкая",
    "total_complaints": 1,
    "noisy_complaints": 0,
    "noise_sources": [
      "строительные работы",
      "Строительные работы"
    ],
    "last_check_date": "21.09.2016",
    "noise_ratio": 0.0
  },
  {
    "latitude": 55.650312,
    "longitude": 37.606433,
    "address": "Симферопольский бульвар, дом 19, корпус 1",
    "is_noisy": true,
    "complaint_frequency": "низкая",
    "total_complaints": 1,
    "noisy_complaints": 1,
    "noise_sources": [
      "Другие источники"
    ],
    "last_check_date": "02.09.2016",
    "noise_ratio": 1.0
  },
  {
    "latitude": 55.771565,
    "longitude": 37.602885,
    "address": "Садовая-Триумфальная улица, дом 18-20",
    "is_noisy": false,
    "complaint_frequency": "низкая",
    "total_complaints": 1,
    "noisy_complaints": 0,
    "noise_sources": [
      "Дорожно-ремонтные работы",
      "дорожно-ремонтные работы"
    ],
    "last_check_date": "21.09.2016",
    "noise_ratio": 0.0
  },
  {
    "latitude": 55.74443,
    "longitude": 37.613136,
    "address": "улица Серафимовича, 2",
    "is_noisy": false,
    "complaint_frequency": "низкая",
    "total_complaints": 1,
    "noisy_complaints": 0,
    "noise_sources": [
      "строительные работы",
      "Строительные работы"
    ],
    "last_check_date": "21.09.2016",
    "noise_ratio": 0.0
  },
  {
    "latitude": 55.739929,
    "longitude": 37.666459,
    "address": "Таганская улица, дом 27",
    "is_noisy": false,
    "complaint_frequency": "низкая",
    "total_complaints": 1,
    "noisy_complaints": 0,
    "noise_sources": [
      "Дорожно-ремонтные работы",
      "дорожно-ремонтные работы"
    ],
    "last_check_date": "21.09.2016",
    "noise_ratio": 0.0
  },
  {
    "latitude": 55.751057,
    "longitude": 37.68041,
    "address": "Таможенный проезд, дом 8, корпус 2",
    "is_noisy": false,
    "complaint_frequency": "низкая",
    "total_complaints": 2,
    "noisy_complaints": 1,
    "noise_sources": [
      "строительные работы",
      "автотранспорт",
      "Строительные работы"
    ],
    "last_check_date": "21.09.2016",
    "noise_ratio": 0.5
  },
  {
    "latitude": 55.648563,
    "longitude": 37.616124,
    "address": "Артековская улица, дом 9, корпус 1",
    "is_noisy": true,
    "complaint_frequency": "низкая",
    "total_complaints": 1,
    "noisy_complaints": 1,
    "noise_sources": [
      "Другие источники"
    ],
    "last_check_date": "02.09.2016",
    "noise_ratio": 1.0
  },
  {
    "latitude": 55.701141,
    "longitude": 37.840238,
    "address": "Привольная улица, дом 9, корпус 1, строение 2",
    "is_noisy": true,
    "complaint_frequency": "низкая",
    "total_complaints": 1,
    "noisy_complaints": 1,
    "noise_sources": [
      "автотранспорт",
      "Строительные работы"
    ],
    "last_check_date": "26.09.2016",
    "noise_ratio": 1.0
  },
  {
    "latitude": 55.679458,
    "longitude": 37.858923,
    "address": "улица Авиаконструктора Миля, дом 19",
    "is_noisy": false,
    "complaint_frequency": "низкая",
    "total_complaints": 1,
    "noisy_complaints": 0,
    "noise_sources": [
      "Дорожно-ремонтные работы",
      "дорожно-ремонтные работы"
    ],
    "last_check_date": "27.09.2016",
    "noise_ratio": 0.0
  },
  {
    "latitude": 55.588663,
    "longitude": 37.665362,
    "address": "Бирюлёвская улица, дом 37, корпус 1",
    "is_noisy": true,
    "complaint_frequency": "низкая",
    "total_complaints": 1,
    "noisy_complaints": 1,
    "noise_sources": [
      "Промышленное предприятие"
    ],
    "last_check_date": "02.09.2016",
    "noise_ratio": 1.0
  },
  {
    "latitude": 55.717599,
    "longitude": 37.602975,
    "address": "Донская улица, дом 28",
    "is_noisy": true,
    "complaint_frequency": "низкая",
    "total_complaints": 1,
    "noisy_complaints": 1,
    "noise_sources": [
      "автотранспорт",
      "Промышленное предприятие"
    ],
    "last_check_date": "13.09.2016",
    "noise_ratio": 1.0
  },
  {
    "latitude": 55.732154,
    "longitude": 37.760383,
    "address": "Орехово-Зуевский проезд, дом 28",
    "is_noisy": true,
    "complaint_frequency": "средняя",
    "total_complaints": 4,
    "noisy_complaints": 4,
    "noise_sources": [
      "Строительные работы",
      "Железнодорожный транспорт"
    ],
    "last_check_date": "27.09.2016",
    "noise_ratio": 1.0
  },
  {
    "latitude": 55.666137,
    "longitude": 37.764106,
    "address": "улица Перерва, дом 59",
    "is_noisy": true,
    "complaint_frequency": "низкая",
    "total_complaints": 1,
    "noisy_complaints": 1,
    "noise_sources": [
      "Дорожно-ремонтные работы"
    ],
    "last_check_date": "27.09.2016",
    "noise_ratio": 1.0
  },
  {
    "latitude": 55.589274,
    "longitude": 37.612641,
    "address": "Газопровод улица, дом 15",
    "is_noisy": true,
    "complaint_frequency": "низкая",
    "total_complaints": 1,
    "noisy_complaints": 1,
    "noise_sources": [
      "Железнодорожный транспорт"
    ],
    "last_check_date": "20.09.2016",
    "noise_ratio": 1.0
  },
  {
    "latitude": 55.707197,
    "longitude": 37.819702,
    "address": "Ташкентский переулок, дом 1",
    "is_noisy": false,
    "complaint_frequency": "низкая",
    "total_complaints": 1,
    "noisy_complaints": 0,
    "noise_sources": [
      "строительные работы",
      "Строительные работы"
    ],
    "last_check_date": "27.09.2016",
    "noise_ratio": 0.0
  },
  {
    "latitude": 55.656077,
    "longitude": 37.49179,
    "address": "улица 26-ти Бакинских Комиссаров, дом 1, корпус 1",
    "is_noisy": true,
    "complaint_frequency": "низкая",
    "total_complaints": 1,
    "noisy_complaints": 1,
    "noise_sources": [
      "автотранспорт",
      "Другие источники, Промышленное предприятие"
    ],
    "last_check_date": "02.09.2016",
    "noise_ratio": 1.0
  },
  {
    "latitude": 55.760732,
    "longitude": 37.554286,
    "address": "улица Костикова, дом 3",
    "is_noisy": true,
    "complaint_frequency": "низкая",
    "total_complaints": 1,
    "noisy_complaints": 1,
    "noise_sources": [
      "автотранспорт",
      "Промышленное предприятие"
    ],
    "last_check_date": "02.09.2016",
    "noise_ratio": 1.0
  },
  {
    "latitude": 55.565412,
    "longitude": 37.473474,
    "address": "посёлок Коммунарка, Ясная улица, дом 10",
    "is_noisy": true,
    "complaint_frequency": "низкая",
    "total_complaints": 1,
    "noisy_complaints": 1,
    "noise_sources": [
      "Авиашум"
    ],
    "last_check_date": "02.09.2016",
    "noise_ratio": 1.0
  },
  {
    "latitude": 55.643795,
    "longitude": 37.371299,
    "address": "Приречная улица, дом 5",
    "is_noisy": true,
    "complaint_frequency": "низкая",
    "total_complaints": 1,
    "noisy_complaints": 1,
    "noise_sources": [
      "Погрузочно-разгрузочные работы промышленных предприятий"
    ],
    "last_check_date": "29.09.2016",
    "noise_ratio": 1.0
  },
  {
    "latitude": 55.74903,
    "longitude": 37.538575,
    "address": "улица Антонова-Овсеенко, дом 5, корпус 2",
    "is_noisy": true,
    "complaint_frequency": "низкая",
    "total_complaints": 1,
    "noisy_complaints": 1,
    "noise_sources": [
      "автотранспорт",
      "Строительные работы"
    ],
    "last_check_date": "02.09.2016",
    "noise_ratio": 1.0
  },
  {
    "latitude": 55.797235,
    "longitude": 37.74278,
    "address": "Большая Черкизовская улица, дом 32, корпус 4",
    "is_noisy": true,
    "complaint_frequency": "низкая",
    "total_complaints": 1,
    "noisy_complaints": 1,
    "noise_sources": [
      "Строительные работы"
    ],
    "last_check_date": "28.09.2016",
    "noise_ratio": 1.0
  },
  {
    "latitude": 55.86794,
    "longitude": 37.687623,
    "address": "Шушенская улица, дом 3, корпус 1",
    "is_noisy": true,
    "complaint_frequency": "низкая",
    "total_complaints": 1,
    "noisy_complaints": 1,
    "noise_sources": [
      "автотранспорт",
      "Железнодорожный транспорт"
    ],
    "last_check_date": "05.09.2016",
    "noise_ratio": 1.0
  },
  {
    "latitude": 55.81652,
    "longitude": 37.831767,
    "address": "Хабаровская улица, дом 8Б",
    "is_noisy": true,
    "complaint_frequency": "низкая",
    "total_complaints": 1,
    "noisy_complaints": 1,
    "noise_sources": [
      "автотранспорт",
      "Строительные работы"
    ],
    "last_check_date": "28.09.2016",
    "noise_ratio": 1.0
  },
  {
    "latitude": 55.883989,
    "longitude": 37.564796,
    "address": "улица 800-летия Москвы, дом 11, корпус 6",
    "is_noisy": true,
    "complaint_frequency": "низкая",
    "total_complaints": 1,
    "noisy_complaints": 1,
    "noise_sources": [
      "автотранспорт",
      "Промышленное предприятие"
    ],
    "last_check_date": "21.09.2016",
    "noise_ratio": 1.0
  },
  {
    "latitude": 55.797898,
    "longitude": 37.687327,
    "address": "улица Короленко, дом 2, корпус 1",
    "is_noisy": true,
    "complaint_frequency": "низкая",
    "total_complaints": 1,
    "noisy_complaints": 1,
    "noise_sources": [
      "Строительные работы"
    ],
    "last_check_date": "28.09.2016",
    "noise_ratio": 1.0
  },
  {
    "latitude": 55.56726,
    "longitude": 37.47571,
    "address": "посёлок Коммунарка, Ясная улица, дом 5",
    "is_noisy": true,
    "complaint_frequency": "низкая",
    "total_complaints": 1,
    "noisy_complaints": 1,
    "noise_sources": [
      "Строительные работы"
    ],
    "last_check_date": "03.09.2016",
    "noise_ratio": 1.0
  },
  {
    "latitude": 55.790879,
    "longitude": 37.818957,
    "address": "Нижняя Первомайская улица, дом 68/7",
    "is_noisy": true,
    "complaint_frequency": "низкая",
    "total_complaints": 1,
    "noisy_complaints": 1,
    "noise_sources": [
      "автотранспорт",
      "Строительные работы"
    ],
    "last_check_date": "27.09.2016",
    "noise_ratio": 1.0
  },
  {
    "latitude": 55.514692,
    "longitude": 37.356989,
    "address": "6-я Нововатутинская улица, дом 5",
    "is_noisy": true,
    "complaint_frequency": "средняя",
    "total_complaints": 3,
    "noisy_complaints": 2,
    "noise_sources": [
      "строительные работы",
      "автотранспорт",
      "Строительные работы",
      "Автотранспорт"
    ],
    "last_check_date": "22.08.2019",
    "noise_ratio": 0.67
  },
  {
    "latitude": 55.906971,
    "longitude": 37.576151,
    "address": "Абрамцевская улица, дом 30",
    "is_noisy": true,
    "complaint_frequency": "низкая",
    "total_complaints": 1,
    "noisy_complaints": 1,
    "noise_sources": [
      "Генераторная установка",
      "автотранспорт"
    ],
    "last_check_date": "27.09.2016",
    "noise_ratio": 1.0
  },
  {
    "latitude": 55.739093,
    "longitude": 37.545105,
    "address": "Студенческая улица, дом 33, корпус 1",
    "is_noisy": true,
    "complaint_frequency": "низкая",
    "total_complaints": 1,
    "noisy_complaints": 1,
    "noise_sources": [
      "автотранспорт",
      "Строительные работы"
    ],
    "last_check_date": "23.09.2016",
    "noise_ratio": 1.0
  },
  {
    "latitude": 55.781985,
    "longitude": 37.512416,
    "address": "улица Зорге, дом 10, корпус 3",
    "is_noisy": true,
    "complaint_frequency": "низкая",
    "total_complaints": 1,
    "noisy_complaints": 1,
    "noise_sources": [
      "автотранспорт",
      "Строительные работы"
    ],
    "last_check_date": "06.09.2016",
    "noise_ratio": 1.0
  },
  {
    "latitude": 55.878329,
    "longitude": 37.62943,
    "address": "Молодцова улица, дом 23, корпус 1",
    "is_noisy": true,
    "complaint_frequency": "средняя",
    "total_complaints": 3,
    "noisy_complaints": 3,
    "noise_sources": [
      "автотранспорт",
      "Автотранспорт, Промышленное предприятие",
      "Погрузочно-разгрузочные работы промышленных предприятий"
    ],
    "last_check_date": "28.03.2017",
    "noise_ratio": 1.0
  },
  {
    "latitude": 55.798859,
    "longitude": 37.501214,
    "address": "улица Алабяна, дом 12, корпус 1",
    "is_noisy": true,
    "complaint_frequency": "низкая",
    "total_complaints": 1,
    "noisy_complaints": 1,
    "noise_sources": [
      "автотранспорт",
      "Строительные работы"
    ],
    "last_check_date": "07.09.2016",
    "noise_ratio": 1.0
  },
  {
    "latitude": 55.876486,
    "longitude": 37.621857,
    "address": "Ясный проезд, дом 26",
    "is_noisy": true,
    "complaint_frequency": "низкая",
    "total_complaints": 1,
    "noisy_complaints": 1,
    "noise_sources": [
      "Погрузочно-разгрузочные работы встроенно-пристроенных магазинов"
    ],
    "last_check_date": "27.09.2016",
    "noise_ratio": 1.0
  },
  {
    "latitude": 55.790285,
    "longitude": 37.501284,
    "address": "улица Маршала Бирюзова, дом 2",
    "is_noisy": true,
    "complaint_frequency": "низкая",
    "total_complaints": 1,
    "noisy_complaints": 1,
    "noise_sources": [
      "Строительные работы"
    ],
    "last_check_date": "07.09.2016",
    "noise_ratio": 1.0
  },
  {
    "latitude": 55.808776,
    "longitude": 37.493228,
    "address": "Волоколамское шоссе, дом 15/22",
    "is_noisy": true,
    "complaint_frequency": "низкая",
    "total_complaints": 1,
    "noisy_complaints": 1,
    "noise_sources": [
      "автотранспорт",
      "Железнодорожный транспорт"
    ],
    "last_check_date": "27.09.2016",
    "noise_ratio": 1.0
  },
  {
    "latitude": 55.847664,
    "longitude": 37.370643,
    "address": "Пятницкое шоссе, дом 21",
    "is_noisy": false,
    "complaint_frequency": "низкая",
    "total_complaints": 2,
    "noisy_complaints": 1,
    "noise_sources": [
      "строительные работы",
      "Строительные работы"
    ],
    "last_check_date": "19.10.2016",
    "noise_ratio": 0.5
  },
  {
    "latitude": 55.865445,
    "longitude": 37.694244,
    "address": "Палехская улица, дом 7",
    "is_noisy": true,
    "complaint_frequency": "низкая",
    "total_complaints": 1,
    "noisy_complaints": 1,
    "noise_sources": [
      "Железнодорожный транспорт"
    ],
    "last_check_date": "28.09.2016",
    "noise_ratio": 1.0
  },
  {
    "latitude": 55.787442,
    "longitude": 37.498168,
    "address": "3-я Хорошёвская улица, дом 7",
    "is_noisy": true,
    "complaint_frequency": "средняя",
    "total_complaints": 3,
    "noisy_complaints": 3,
    "noise_sources": [
      "Строительные работы"
    ],
    "last_check_date": "17.01.2017",
    "noise_ratio": 1.0
  },
  {
    "latitude": 55.855057,
    "longitude": 37.564176,
    "address": "Дмитровское шоссе, дом 64, корпус 4",
    "is_noisy": true,
    "complaint_frequency": "низкая",
    "total_complaints": 1,
    "noisy_complaints": 1,
    "noise_sources": [
      "автотранспорт",
      "Другие источники"
    ],
    "last_check_date": "29.09.2016",
    "noise_ratio": 1.0
  },
  {
    "latitude": 55.838788,
    "longitude": 37.488533,
    "address": "улица Адмирала Макарова, дом 14",
    "is_noisy": true,
    "complaint_frequency": "низкая",
    "total_complaints": 1,
    "noisy_complaints": 1,
    "noise_sources": [
      "Строительные работы"
    ],
    "last_check_date": "07.09.2016",
    "noise_ratio": 1.0
  },
  {
    "latitude": 55.826286,
    "longitude": 37.493937,
    "address": "Ленинградское шоссе, дом 20, корпус 1",
    "is_noisy": true,
    "complaint_frequency": "низкая",
    "total_complaints": 1,
    "noisy_complaints": 1,
    "noise_sources": [
      "автотранспорт",
      "Строительные работы"
    ],
    "last_check_date": "07.09.2016",
    "noise_ratio": 1.0
  },
  {
    "latitude": 55.711762,
    "longitude": 37.454914,
    "address": "Аминьевское шоссе, дом 10",
    "is_noisy": true,
    "complaint_frequency": "низкая",
    "total_complaints": 1,
    "noisy_complaints": 1,
    "noise_sources": [
      "Строительные работы"
    ],
    "last_check_date": "14.09.2016",
    "noise_ratio": 1.0
  },
  {
    "latitude": 55.726304,
    "longitude": 37.467715,
    "address": "Славянский бульвар, дом 9, корпус 6",
    "is_noisy": true,
    "complaint_frequency": "низкая",
    "total_complaints": 1,
    "noisy_complaints": 1,
    "noise_sources": [
      "автотранспорт",
      "Строительные работы"
    ],
    "last_check_date": "14.09.2016",
    "noise_ratio": 1.0
  },
  {
    "latitude": 55.881646,
    "longitude": 37.538269,
    "address": "Яхромская улица, дом 1А",
    "is_noisy": true,
    "complaint_frequency": "низкая",
    "total_complaints": 1,
    "noisy_complaints": 1,
    "noise_sources": [
      "Строительные работы"
    ],
    "last_check_date": "30.09.2016",
    "noise_ratio": 1.0
  },
  {
    "latitude": 55.863525,
    "longitude": 37.517374,
    "address": "Флотская улица, дом 35",
    "is_noisy": true,
    "complaint_frequency": "низкая",
    "total_complaints": 1,
    "noisy_complaints": 1,
    "noise_sources": [
      "Строительные работы"
    ],
    "last_check_date": "30.09.2016",
    "noise_ratio": 1.0
  },
  {
    "latitude": 55.755287,
    "longitude": 37.520231,
    "address": "Шмитовский проезд, дом 46",
    "is_noisy": true,
    "complaint_frequency": "низкая",
    "total_complaints": 1,
    "noisy_complaints": 1,
    "noise_sources": [
      "автотранспорт",
      "Строительные работы"
    ],
    "last_check_date": "23.09.2016",
    "noise_ratio": 1.0
  },
  {
    "latitude": 55.85749,
    "longitude": 37.515942,
    "address": "Солнечногорская улица, дом 6, корпус 1",
    "is_noisy": false,
    "complaint_frequency": "низкая",
    "total_complaints": 1,
    "noisy_complaints": 0,
    "noise_sources": [
      "строительные работы",
      "Строительные работы"
    ],
    "last_check_date": "30.09.2016",
    "noise_ratio": 0.0
  },
  {
    "latitude": 55.892844,
    "longitude": 37.526124,
    "address": "Лобненская улица, дом 12, корпус 2",
    "is_noisy": true,
    "complaint_frequency": "низкая",
    "total_complaints": 1,
    "noisy_complaints": 1,
    "noise_sources": [
      "автотранспорт",
      "Строительные работы"
    ],
    "last_check_date": "30.09.2016",
    "noise_ratio": 1.0
  },
  {
    "latitude": 55.86107,
    "longitude": 37.523321,
    "address": "Зеленоградская улица, дом 3",
    "is_noisy": true,
    "complaint_frequency": "низкая",
    "total_complaints": 1,
    "noisy_complaints": 1,
    "noise_sources": [
      "автотранспорт",
      "Строительные работы"
    ],
    "last_check_date": "30.09.2016",
    "noise_ratio": 1.0
  },
  {
    "latitude": 55.875299,
    "longitude": 37.531029,
    "address": "улица 800-летия Москвы, дом 2",
    "is_noisy": true,
    "complaint_frequency": "низкая",
    "total_complaints": 1,
    "noisy_complaints": 1,
    "noise_sources": [
      "Строительные работы"
    ],
    "last_check_date": "30.09.2016",
    "noise_ratio": 1.0
  },
  {
    "latitude": 55.835473,
    "longitude": 37.644944,
    "address": "Сельскохозяйственная улица, дом 14",
    "is_noisy": true,
    "complaint_frequency": "низкая",
    "total_complaints": 1,
    "noisy_complaints": 1,
    "noise_sources": [
      "автотранспорт",
      "Дорожно-ремонтные работы"
    ],
    "last_check_date": "28.09.2016",
    "noise_ratio": 1.0
  },
  {
    "latitude": 55.79226,
    "longitude": 37.742573,
    "address": "Окружной проезд, дом 11, корпус 7",
    "is_noisy": true,
    "complaint_frequency": "низкая",
    "total_complaints": 1,
    "noisy_complaints": 1,
    "noise_sources": [
      "Строительные работы"
    ],
    "last_check_date": "28.09.2016",
    "noise_ratio": 1.0
  },
  {
    "latitude": 55.81385,
    "longitude": 37.599292,
    "address": "улица Руставели, дом 19",
    "is_noisy": true,
    "complaint_frequency": "низкая",
    "total_complaints": 1,
    "noisy_complaints": 1,
    "noise_sources": [
      "Дорожно-ремонтные работы"
    ],
    "last_check_date": "13.09.2016",
    "noise_ratio": 1.0
  },
  {
    "latitude": 55.742032,
    "longitude": 37.664285,
    "address": "Большой Факельный переулок, дом 3",
    "is_noisy": true,
    "complaint_frequency": "низкая",
    "total_complaints": 1,
    "noisy_complaints": 1,
    "noise_sources": [
      "автотранспорт",
      "Строительные работы"
    ],
    "last_check_date": "21.09.2016",
    "noise_ratio": 1.0
  },
  {
    "latitude": 55.760894,
    "longitude": 37.551744,
    "address": "улица Костикова, дом 7",
    "is_noisy": true,
    "complaint_frequency": "низкая",
    "total_complaints": 1,
    "noisy_complaints": 1,
    "noise_sources": [
      "Строительные работы"
    ],
    "last_check_date": "02.09.2016",
    "noise_ratio": 1.0
  },
  {
    "latitude": 55.765225,
    "longitude": 37.561589,
    "address": "улица 1905 Года, дом 4",
    "is_noisy": false,
    "complaint_frequency": "низкая",
    "total_complaints": 1,
    "noisy_complaints": 0,
    "noise_sources": [
      "строительные работы",
      "Строительные работы"
    ],
    "last_check_date": "02.09.2016",
    "noise_ratio": 0.0
  },
  {
    "latitude": 55.765777,
    "longitude": 37.574651,
    "address": "Зоологический переулок, дом 8",
    "is_noisy": false,
    "complaint_frequency": "низкая",
    "total_complaints": 1,
    "noisy_complaints": 0,
    "noise_sources": [
      "строительные работы",
      "Строительные работы"
    ],
    "last_check_date": "02.09.2016",
    "noise_ratio": 0.0
  },
  {
    "latitude": 55.773707,
    "longitude": 37.580526,
    "address": "Большой Кондратьевский переулок, дом 7",
    "is_noisy": false,
    "complaint_frequency": "низкая",
    "total_complaints": 1,
    "noisy_complaints": 0,
    "noise_sources": [
      "строительные работы",
      "Строительные работы"
    ],
    "last_check_date": "02.09.2016",
    "noise_ratio": 0.0
  },
  {
    "latitude": 55.769676,
    "longitude": 37.567824,
    "address": "Большой Тишинский переулок, дом 40, строение 1",
    "is_noisy": false,
    "complaint_frequency": "низкая",
    "total_complaints": 1,
    "noisy_complaints": 0,
    "noise_sources": [
      "строительные работы",
      "Строительные работы"
    ],
    "last_check_date": "02.09.2016",
    "noise_ratio": 0.0
  },
  {
    "latitude": 55.542105,
    "longitude": 37.573402,
    "address": "Старонародная улица, дом 2",
    "is_noisy": false,
    "complaint_frequency": "низкая",
    "total_complaints": 1,
    "noisy_complaints": 0,
    "noise_sources": [
      "Дорожно-ремонтные работы",
      "дорожно-ремонтные работы"
    ],
    "last_check_date": "10.09.2016",
    "noise_ratio": 0.0
  },
  {
    "latitude": 55.769266,
    "longitude": 37.591108,
    "address": "улица Гашека, дом 12, строение 1",
    "is_noisy": false,
    "complaint_frequency": "низкая",
    "total_complaints": 1,
    "noisy_complaints": 0,
    "noise_sources": [
      "строительные работы",
      "Строительные работы"
    ],
    "last_check_date": "25.09.2016",
    "noise_ratio": 0.0
  },
  {
    "latitude": 55.806894,
    "longitude": 37.635593,
    "address": "проспект Мира, дом 91, корпус 3",
    "is_noisy": false,
    "complaint_frequency": "низкая",
    "total_complaints": 1,
    "noisy_complaints": 0,
    "noise_sources": [
      "строительные работы",
      "Строительные работы"
    ],
    "last_check_date": "25.09.2016",
    "noise_ratio": 0.0
  },
  {
    "latitude": 55.777049,
    "longitude": 37.622396,
    "address": "Олимпийский проспект, дом 10, корпус 1-2",
    "is_noisy": false,
    "complaint_frequency": "низкая",
    "total_complaints": 1,
    "noisy_complaints": 0,
    "noise_sources": [
      "строительные работы",
      "Строительные работы"
    ],
    "last_check_date": "25.09.2016",
    "noise_ratio": 0.0
  },
  {
    "latitude": 55.717589,
    "longitude": 37.59825,
    "address": "Малая Калужская улица, дом 15, строение 5",
    "is_noisy": false,
    "complaint_frequency": "низкая",
    "total_complaints": 1,
    "noisy_complaints": 0,
    "noise_sources": [
      "строительные работы",
      "Строительные работы"
    ],
    "last_check_date": "20.09.2016",
    "noise_ratio": 0.0
  },
  {
    "latitude": 55.751915,
    "longitude": 37.605366,
    "address": "Крестовоздвиженский переулок, дом 4, строение 1",
    "is_noisy": false,
    "complaint_frequency": "низкая",
    "total_complaints": 2,
    "noisy_complaints": 0,
    "noise_sources": [
      "строительные работы",
      "Строительные работы"
    ],
    "last_check_date": "21.09.2016",
    "noise_ratio": 0.0
  },
  {
    "latitude": 55.665345,
    "longitude": 37.774535,
    "address": "улица Верхние Поля, дом 40, корпус 2",
    "is_noisy": false,
    "complaint_frequency": "низкая",
    "total_complaints": 1,
    "noisy_complaints": 0,
    "noise_sources": [
      "строительные работы",
      "Строительные работы"
    ],
    "last_check_date": "27.09.2016",
    "noise_ratio": 0.0
  },
  {
    "latitude": 55.79921,
    "longitude": 37.50447,
    "address": "улица Алабяна, дом 17, корпус 1",
    "is_noisy": false,
    "complaint_frequency": "низкая",
    "total_complaints": 1,
    "noisy_complaints": 0,
    "noise_sources": [
      "Дорожно-ремонтные работы",
      "дорожно-ремонтные работы"
    ],
    "last_check_date": "07.09.2016",
    "noise_ratio": 0.0
  },
  {
    "latitude": 55.870284,
    "longitude": 37.504295,
    "address": "Зеленоградская улица, дом 15(ориентир)",
    "is_noisy": false,
    "complaint_frequency": "низкая",
    "total_complaints": 1,
    "noisy_complaints": 0,
    "noise_sources": [
      "строительные работы",
      "Строительные работы"
    ],
    "last_check_date": "07.09.2016",
    "noise_ratio": 0.0
  },
  {
    "latitude": 55.803008,
    "longitude": 37.516431,
    "address": "Песчаная улица, дом 3",
    "is_noisy": false,
    "complaint_frequency": "низкая",
    "total_complaints": 1,
    "noisy_complaints": 0,
    "noise_sources": [
      "Дорожно-ремонтные работы",
      "дорожно-ремонтные работы"
    ],
    "last_check_date": "07.09.2016",
    "noise_ratio": 0.0
  },
  {
    "latitude": 55.795115,
    "longitude": 37.495249,
    "address": "улица Маршала Рыбалко, дом 1",
    "is_noisy": false,
    "complaint_frequency": "низкая",
    "total_complaints": 1,
    "noisy_complaints": 0,
    "noise_sources": [
      "строительные работы",
      "Строительные работы"
    ],
    "last_check_date": "07.09.2016",
    "noise_ratio": 0.0
  },
  {
    "latitude": 55.713314,
    "longitude": 37.459649,
    "address": "Кременчугская улица, дом 40, корпус 1",
    "is_noisy": false,
    "complaint_frequency": "низкая",
    "total_complaints": 1,
    "noisy_complaints": 0,
    "noise_sources": [
      "Дорожно-ремонтные работы",
      "дорожно-ремонтные работы"
    ],
    "last_check_date": "14.09.2016",
    "noise_ratio": 0.0
  },
  {
    "latitude": 55.72703,
    "longitude": 37.47607,
    "address": "Славянский бульвар, дом 1",
    "is_noisy": false,
    "complaint_frequency": "средняя",
    "total_complaints": 4,
    "noisy_complaints": 1,
    "noise_sources": [
      "строительные работы",
      "Строительные работы",
      "дорожно-ремонтные работы"
    ],
    "last_check_date": "24.03.2017",
    "noise_ratio": 0.25
  },
  {
    "latitude": 55.645121,
    "longitude": 37.529133,
    "address": "Профсоюзная улица, дом 83, корпус 3",
    "is_noisy": false,
    "complaint_frequency": "низкая",
    "total_complaints": 1,
    "noisy_complaints": 0,
    "noise_sources": [
      "Дорожно-ремонтные работы",
      "дорожно-ремонтные работы"
    ],
    "last_check_date": "29.09.2016",
    "noise_ratio": 0.0
  },
  {
    "latitude": 55.687832,
    "longitude": 37.494656,
    "address": "улица Раменки, дом 25, корпус 3",
    "is_noisy": false,
    "complaint_frequency": "низкая",
    "total_complaints": 1,
    "noisy_complaints": 0,
    "noise_sources": [
      "строительные работы",
      "Строительные работы"
    ],
    "last_check_date": "29.09.2016",
    "noise_ratio": 0.0
  },
  {
    "latitude": 55.704803,
    "longitude": 37.576232,
    "address": "Ленинский проспект, дом 43",
    "is_noisy": false,
    "complaint_frequency": "низкая",
    "total_complaints": 1,
    "noisy_complaints": 0,
    "noise_sources": [
      "Дорожно-ремонтные работы",
      "дорожно-ремонтные работы"
    ],
    "last_check_date": "20.09.2016",
    "noise_ratio": 0.0
  },
  {
    "latitude": 55.732514,
    "longitude": 37.675154,
    "address": "Иерусалимский проезд, дом 4",
    "is_noisy": false,
    "complaint_frequency": "низкая",
    "total_complaints": 1,
    "noisy_complaints": 0,
    "noise_sources": [
      "Дорожно-ремонтные работы",
      "дорожно-ремонтные работы"
    ],
    "last_check_date": "21.09.2016",
    "noise_ratio": 0.0
  },
  {
    "latitude": 55.750677,
    "longitude": 37.590713,
    "address": "Большой Николопесковский переулок, дом 6",
    "is_noisy": false,
    "complaint_frequency": "низкая",
    "total_complaints": 1,
    "noisy_complaints": 0,
    "noise_sources": [
      "Дорожно-ремонтные работы",
      "дорожно-ремонтные работы"
    ],
    "last_check_date": "21.09.2016",
    "noise_ratio": 0.0
  },
  {
    "latitude": 55.736295,
    "longitude": 37.614572,
    "address": "улица Большая Якиманка, дом 25",
    "is_noisy": false,
    "complaint_frequency": "низкая",
    "total_complaints": 1,
    "noisy_complaints": 0,
    "noise_sources": [
      "строительные работы",
      "Строительные работы"
    ],
    "last_check_date": "21.09.2016",
    "noise_ratio": 0.0
  },
  {
    "latitude": 55.687863,
    "longitude": 37.8574,
    "address": "улица Генерала Кузнецова, дом 16, корпус 1",
    "is_noisy": false,
    "complaint_frequency": "низкая",
    "total_complaints": 1,
    "noisy_complaints": 0,
    "noise_sources": [
      "Дорожно-ремонтные работы",
      "дорожно-ремонтные работы"
    ],
    "last_check_date": "27.09.2016",
    "noise_ratio": 0.0
  },
  {
    "latitude": 55.700547,
    "longitude": 37.774813,
    "address": "улица Юных Ленинцев, дом 85, корпус 2",
    "is_noisy": false,
    "complaint_frequency": "низкая",
    "total_complaints": 1,
    "noisy_complaints": 0,
    "noise_sources": [
      "строительные работы",
      "Строительные работы"
    ],
    "last_check_date": "27.09.2016",
    "noise_ratio": 0.0
  },
  {
    "latitude": 55.783494,
    "longitude": 37.633859,
    "address": "проспект Мира, дом 49",
    "is_noisy": false,
    "complaint_frequency": "низкая",
    "total_complaints": 1,
    "noisy_complaints": 0,
    "noise_sources": [
      "Дорожно-ремонтные работы",
      "дорожно-ремонтные работы"
    ],
    "last_check_date": "25.09.2016",
    "noise_ratio": 0.0
  },
  {
    "latitude": 55.751437,
    "longitude": 37.578208,
    "address": "Панфиловский переулок, дом 5",
    "is_noisy": false,
    "complaint_frequency": "низкая",
    "total_complaints": 1,
    "noisy_complaints": 0,
    "noise_sources": [
      "Строительные работы",
      "погрузочно-разгрузочные работы"
    ],
    "last_check_date": "25.09.2016",
    "noise_ratio": 0.0
  },
  {
    "latitude": 55.772807,
    "longitude": 37.596861,
    "address": "4-я Тверская-Ямская улица, дом 6/12",
    "is_noisy": false,
    "complaint_frequency": "низкая",
    "total_complaints": 1,
    "noisy_complaints": 0,
    "noise_sources": [
      "Дорожно-ремонтные работы",
      "дорожно-ремонтные работы"
    ],
    "last_check_date": "25.09.2016",
    "noise_ratio": 0.0
  },
  {
    "latitude": 55.665345,
    "longitude": 37.774535,
    "address": "Улица Верхние Поля, дом 38, корпус 1",
    "is_noisy": false,
    "complaint_frequency": "низкая",
    "total_complaints": 1,
    "noisy_complaints": 0,
    "noise_sources": [
      "строительные работы",
      "Строительные работы"
    ],
    "last_check_date": "08.09.2016",
    "noise_ratio": 0.0
  },
  {
    "latitude": 55.723095,
    "longitude": 37.462074,
    "address": "Кременчугская улица, дом 5, корпус 1",
    "is_noisy": false,
    "complaint_frequency": "низкая",
    "total_complaints": 1,
    "noisy_complaints": 0,
    "noise_sources": [
      "Дорожно-ремонтные работы",
      "дорожно-ремонтные работы"
    ],
    "last_check_date": "14.09.2016",
    "noise_ratio": 0.0
  },
  {
    "latitude": 55.678448,
    "longitude": 37.501771,
    "address": "улица Удальцова, дом 65Б",
    "is_noisy": false,
    "complaint_frequency": "низкая",
    "total_complaints": 1,
    "noisy_complaints": 0,
    "noise_sources": [
      "Дорожно-ремонтные работы",
      "дорожно-ремонтные работы"
    ],
    "last_check_date": "29.09.2016",
    "noise_ratio": 0.0
  },
  {
    "latitude": 55.683224,
    "longitude": 37.753267,
    "address": "Спортивный проезд, дом 6",
    "is_noisy": false,
    "complaint_frequency": "низкая",
    "total_complaints": 1,
    "noisy_complaints": 0,
    "noise_sources": [
      "Дорожно-ремонтные работы",
      "дорожно-ремонтные работы"
    ],
    "last_check_date": "08.09.2016",
    "noise_ratio": 0.0
  },
  {
    "latitude": 55.678727,
    "longitude": 37.756245,
    "address": "Таганрогская улица, дом 11, корпус 3",
    "is_noisy": false,
    "complaint_frequency": "низкая",
    "total_complaints": 1,
    "noisy_complaints": 0,
    "noise_sources": [
      "строительные работы",
      "Строительные работы"
    ],
    "last_check_date": "08.09.2016",
    "noise_ratio": 0.0
  },
  {
    "latitude": 55.671981,
    "longitude": 37.773709,
    "address": "Цимлянская улица, дом 2",
    "is_noisy": false,
    "complaint_frequency": "низкая",
    "total_complaints": 2,
    "noisy_complaints": 1,
    "noise_sources": [
      "строительные работы",
      "Строительные работы"
    ],
    "last_check_date": "08.09.2016",
    "noise_ratio": 0.5
  },
  {
    "latitude": 55.635024,
    "longitude": 37.737838,
    "address": "Улица Борисовские Пруды, дом 8, корпус 3",
    "is_noisy": false,
    "complaint_frequency": "низкая",
    "total_complaints": 1,
    "noisy_complaints": 0,
    "noise_sources": [
      "строительные работы",
      "Строительные работы"
    ],
    "last_check_date": "09.09.2016",
    "noise_ratio": 0.0
  },
  {
    "latitude": 55.649144,
    "longitude": 37.724903,
    "address": "Улица Маршала Голованова, дом 12",
    "is_noisy": false,
    "complaint_frequency": "низкая",
    "total_complaints": 1,
    "noisy_complaints": 0,
    "noise_sources": [
      "строительные работы",
      "Строительные работы"
    ],
    "last_check_date": "09.09.2016",
    "noise_ratio": 0.0
  },
  {
    "latitude": 55.626304,
    "longitude": 37.739366,
    "address": "Улица Мусы Джалиля, дом 10, корпус 1",
    "is_noisy": false,
    "complaint_frequency": "низкая",
    "total_complaints": 1,
    "noisy_complaints": 0,
    "noise_sources": [
      "строительные работы",
      "Строительные работы"
    ],
    "last_check_date": "09.09.2016",
    "noise_ratio": 0.0
  },
  {
    "latitude": 55.619507,
    "longitude": 37.752203,
    "address": "Кустанайская улица, дом 6, корпус 2",
    "is_noisy": false,
    "complaint_frequency": "низкая",
    "total_complaints": 2,
    "noisy_complaints": 0,
    "noise_sources": [
      "строительные работы",
      "Строительные работы"
    ],
    "last_check_date": "09.09.2016",
    "noise_ratio": 0.0
  },
  {
    "latitude": 55.81601,
    "longitude": 37.597414,
    "address": "Огородный проезд, дом 19 А",
    "is_noisy": false,
    "complaint_frequency": "низкая",
    "total_complaints": 1,
    "noisy_complaints": 0,
    "noise_sources": [
      "строительные работы",
      "Строительные работы"
    ],
    "last_check_date": "13.09.2016",
    "noise_ratio": 0.0
  },
  {
    "latitude": 55.810851,
    "longitude": 37.515964,
    "address": "Балтийская улица, дом 10, корпус 1",
    "is_noisy": false,
    "complaint_frequency": "низкая",
    "total_complaints": 1,
    "noisy_complaints": 0,
    "noise_sources": [
      "строительные работы",
      "Строительные работы"
    ],
    "last_check_date": "14.09.2016",
    "noise_ratio": 0.0
  },
  {
    "latitude": 55.8454,
    "longitude": 37.557538,
    "address": "Большая Академическая улица, дом 83",
    "is_noisy": false,
    "complaint_frequency": "средняя",
    "total_complaints": 4,
    "noisy_complaints": 1,
    "noise_sources": [
      "строительные работы",
      "Строительные работы"
    ],
    "last_check_date": "28.10.2016",
    "noise_ratio": 0.25
  },
  {
    "latitude": 55.840074,
    "longitude": 37.58243,
    "address": "Ботаническая улица, дом 33, корпус 4",
    "is_noisy": false,
    "complaint_frequency": "низкая",
    "total_complaints": 1,
    "noisy_complaints": 0,
    "noise_sources": [
      "строительные работы",
      "Строительные работы"
    ],
    "last_check_date": "14.09.2016",
    "noise_ratio": 0.0
  },
  {
    "latitude": 55.807086,
    "longitude": 37.391448,
    "address": "Неманский проезд, дом 13, корпус 2",
    "is_noisy": false,
    "complaint_frequency": "низкая",
    "total_complaints": 1,
    "noisy_complaints": 0,
    "noise_sources": [
      "Дорожно-ремонтные работы",
      "дорожно-ремонтные работы"
    ],
    "last_check_date": "14.09.2016",
    "noise_ratio": 0.0
  },
  {
    "latitude": 55.810678,
    "longitude": 37.392508,
    "address": "Неманский проезд, дом 9",
    "is_noisy": false,
    "complaint_frequency": "низкая",
    "total_complaints": 1,
    "noisy_complaints": 0,
    "noise_sources": [
      "Дорожно-ремонтные работы",
      "дорожно-ремонтные работы"
    ],
    "last_check_date": "14.09.2016",
    "noise_ratio": 0.0
  },
  {
    "latitude": 55.838652,
    "longitude": 37.537604,
    "address": "1-й Новомихалковский проезд, дом 8",
    "is_noisy": false,
    "complaint_frequency": "низкая",
    "total_complaints": 1,
    "noisy_complaints": 0,
    "noise_sources": [
      "строительные работы",
      "Строительные работы"
    ],
    "last_check_date": "14.09.2016",
    "noise_ratio": 0.0
  },
  {
    "latitude": 55.787614,
    "longitude": 37.361454,
    "address": "Новорублёвская улица, дом 2, корпус 1",
    "is_noisy": false,
    "complaint_frequency": "низкая",
    "total_complaints": 1,
    "noisy_complaints": 0,
    "noise_sources": [
      "Дорожно-ремонтные работы",
      "дорожно-ремонтные работы"
    ],
    "last_check_date": "14.09.2016",
    "noise_ratio": 0.0
  },
  {
    "latitude": 55.838713,
    "longitude": 37.415119,
    "address": "Походный проезд, дом 9, корпус 2",
    "is_noisy": false,
    "complaint_frequency": "низкая",
    "total_complaints": 1,
    "noisy_complaints": 0,
    "noise_sources": [
      "Дорожно-ремонтные работы",
      "дорожно-ремонтные работы"
    ],
    "last_check_date": "14.09.2016",
    "noise_ratio": 0.0
  },
  {
    "latitude": 55.828794,
    "longitude": 37.430076,
    "address": "Проезд Стратонавтов, дом 10, строение 1",
    "is_noisy": false,
    "complaint_frequency": "низкая",
    "total_complaints": 1,
    "noisy_complaints": 0,
    "noise_sources": [
      "строительные работы",
      "Строительные работы"
    ],
    "last_check_date": "14.09.2016",
    "noise_ratio": 0.0
  },
  {
    "latitude": 55.829608,
    "longitude": 37.596309,
    "address": "Улица Академика Комарова, дом 3",
    "is_noisy": false,
    "complaint_frequency": "низкая",
    "total_complaints": 1,
    "noisy_complaints": 0,
    "noise_sources": [
      "строительные работы",
      "Строительные работы"
    ],
    "last_check_date": "15.09.2016",
    "noise_ratio": 0.0
  },
  {
    "latitude": 55.868435,
    "longitude": 37.485843,
    "address": "Улица Дыбенко, дом 6, корпус 1",
    "is_noisy": false,
    "complaint_frequency": "низкая",
    "total_complaints": 2,
    "noisy_complaints": 0,
    "noise_sources": [
      "строительные работы",
      "Строительные работы"
    ],
    "last_check_date": "28.02.2017",
    "noise_ratio": 0.0
  },
  {
    "latitude": 55.840684,
    "longitude": 37.463071,
    "address": "Лодочная улица, дом 35, строение 2",
    "is_noisy": false,
    "complaint_frequency": "низкая",
    "total_complaints": 1,
    "noisy_complaints": 0,
    "noise_sources": [
      "строительные работы",
      "Строительные работы"
    ],
    "last_check_date": "16.09.2016",
    "noise_ratio": 0.0
  },
  {
    "latitude": 55.849274,
    "longitude": 37.421722,
    "address": "улица Героев Панфиловцев, дом 22, корпус 1",
    "is_noisy": false,
    "complaint_frequency": "низкая",
    "total_complaints": 1,
    "noisy_complaints": 0,
    "noise_sources": [
      "строительные работы",
      "Строительные работы"
    ],
    "last_check_date": "16.09.2016",
    "noise_ratio": 0.0
  },
  {
    "latitude": 55.869814,
    "longitude": 37.441503,
    "address": "Улица Свободы, дом 97, корпус 1, строение 1",
    "is_noisy": false,
    "complaint_frequency": "низкая",
    "total_complaints": 1,
    "noisy_complaints": 0,
    "noise_sources": [
      "строительные работы",
      "Строительные работы"
    ],
    "last_check_date": "16.09.2016",
    "noise_ratio": 0.0
  },
  {
    "latitude": 55.870056,
    "longitude": 37.471318,
    "address": "Смольная улица, дом 63",
    "is_noisy": false,
    "complaint_frequency": "низкая",
    "total_complaints": 1,
    "noisy_complaints": 0,
    "noise_sources": [
      "строительные работы",
      "Строительные работы"
    ],
    "last_check_date": "16.09.2016",
    "noise_ratio": 0.0
  },
  {
    "latitude": 55.852359,
    "longitude": 37.415568,
    "address": "Туристская улица, дом 19, корпус 5",
    "is_noisy": false,
    "complaint_frequency": "низкая",
    "total_complaints": 1,
    "noisy_complaints": 0,
    "noise_sources": [
      "строительные работы",
      "Строительные работы"
    ],
    "last_check_date": "16.09.2016",
    "noise_ratio": 0.0
  },
  {
    "latitude": 55.844485,
    "longitude": 37.4455,
    "address": "Улица Фабрициуса, дом 20",
    "is_noisy": false,
    "complaint_frequency": "низкая",
    "total_complaints": 1,
    "noisy_complaints": 0,
    "noise_sources": [
      "строительные работы",
      "Строительные работы"
    ],
    "last_check_date": "16.09.2016",
    "noise_ratio": 0.0
  },
  {
    "latitude": 55.787224,
    "longitude": 37.480552,
    "address": "Улица Берзарина, дом 15 А, строение 1",
    "is_noisy": false,
    "complaint_frequency": "низкая",
    "total_complaints": 1,
    "noisy_complaints": 0,
    "noise_sources": [
      "строительные работы",
      "Строительные работы"
    ],
    "last_check_date": "23.09.2016",
    "noise_ratio": 0.0
  },
  {
    "latitude": 55.866596,
    "longitude": 37.555508,
    "address": "Бескудниковский бульвар, дом 21, корпус 1",
    "is_noisy": false,
    "complaint_frequency": "низкая",
    "total_complaints": 1,
    "noisy_complaints": 0,
    "noise_sources": [
      "строительные работы",
      "Строительные работы"
    ],
    "last_check_date": "23.09.2016",
    "noise_ratio": 0.0
  },
  {
    "latitude": 55.779034,
    "longitude": 37.574552,
    "address": "Верхняя улица, дом 34, строение 1",
    "is_noisy": false,
    "complaint_frequency": "низкая",
    "total_complaints": 1,
    "noisy_complaints": 0,
    "noise_sources": [
      "строительные работы",
      "Строительные работы"
    ],
    "last_check_date": "23.09.2016",
    "noise_ratio": 0.0
  },
  {
    "latitude": 55.82888,
    "longitude": 37.56953,
    "address": "Дмитровское шоссе, дом 33, корпус 1",
    "is_noisy": false,
    "complaint_frequency": "низкая",
    "total_complaints": 1,
    "noisy_complaints": 0,
    "noise_sources": [
      "строительные работы",
      "Строительные работы"
    ],
    "last_check_date": "23.09.2016",
    "noise_ratio": 0.0
  },
  {
    "latitude": 55.787766,
    "longitude": 37.453477,
    "address": "Живописная улица, дом 17, корпус 1",
    "is_noisy": false,
    "complaint_frequency": "низкая",
    "total_complaints": 1,
    "noisy_complaints": 0,
    "noise_sources": [
      "строительные работы",
      "Строительные работы"
    ],
    "last_check_date": "23.09.2016",
    "noise_ratio": 0.0
  },
  {
    "latitude": 55.784977,
    "longitude": 37.56194,
    "address": "Ленинградский проспект, дом 31, строение 1",
    "is_noisy": false,
    "complaint_frequency": "низкая",
    "total_complaints": 1,
    "noisy_complaints": 0,
    "noise_sources": [
      "строительные работы",
      "Строительные работы"
    ],
    "last_check_date": "23.09.2016",
    "noise_ratio": 0.0
  },
  {
    "latitude": 55.847225,
    "longitude": 37.570797,
    "address": "3-й Нижнелихоборский проезд, дом 13, корпус 1",
    "is_noisy": false,
    "complaint_frequency": "низкая",
    "total_complaints": 1,
    "noisy_complaints": 0,
    "noise_sources": [
      "строительные работы",
      "Строительные работы"
    ],
    "last_check_date": "23.09.2016",
    "noise_ratio": 0.0
  },
  {
    "latitude": 55.754137,
    "longitude": 37.58438,
    "address": "Новинский бульвар, дом 18",
    "is_noisy": false,
    "complaint_frequency": "низкая",
    "total_complaints": 1,
    "noisy_complaints": 0,
    "noise_sources": [
      "строительные работы",
      "Строительные работы"
    ],
    "last_check_date": "23.09.2016",
    "noise_ratio": 0.0
  },
  {
    "latitude": 55.856573,
    "longitude": 37.485268,
    "address": "Фестивальная улица, дом 4, корпус 3",
    "is_noisy": false,
    "complaint_frequency": "низкая",
    "total_complaints": 1,
    "noisy_complaints": 0,
    "noise_sources": [
      "строительные работы",
      "Строительные работы"
    ],
    "last_check_date": "23.09.2016",
    "noise_ratio": 0.0
  },
  {
    "latitude": 55.810941,
    "longitude": 37.491476,
    "address": "Улица Константина Царева, дом 4",
    "is_noisy": false,
    "complaint_frequency": "низкая",
    "total_complaints": 1,
    "noisy_complaints": 0,
    "noise_sources": [
      "строительные работы",
      "Строительные работы"
    ],
    "last_check_date": "23.09.2016",
    "noise_ratio": 0.0
  },
  {
    "latitude": 55.800301,
    "longitude": 37.712084,
    "address": "Краснобогатырская улица, дом 90, строение 22",
    "is_noisy": false,
    "complaint_frequency": "низкая",
    "total_complaints": 1,
    "noisy_complaints": 0,
    "noise_sources": [
      "строительные работы",
      "Строительные работы"
    ],
    "last_check_date": "28.09.2016",
    "noise_ratio": 0.0
  },
  {
    "latitude": 55.74371,
    "longitude": 37.768453,
    "address": "Улица Плеханова, дом 25, корпус 5",
    "is_noisy": false,
    "complaint_frequency": "низкая",
    "total_complaints": 1,
    "noisy_complaints": 0,
    "noise_sources": [
      "строительные работы",
      "Строительные работы"
    ],
    "last_check_date": "28.09.2016",
    "noise_ratio": 0.0
  },
  {
    "latitude": 55.878334,
    "longitude": 37.512281,
    "address": "Базовская улица, дом 20",
    "is_noisy": false,
    "complaint_frequency": "низкая",
    "total_complaints": 1,
    "noisy_complaints": 0,
    "noise_sources": [
      "Дорожно-ремонтные работы",
      "дорожно-ремонтные работы"
    ],
    "last_check_date": "30.09.2016",
    "noise_ratio": 0.0
  },
  {
    "latitude": 55.85431,
    "longitude": 37.499031,
    "address": "улица Ляпидевского, дом 2",
    "is_noisy": false,
    "complaint_frequency": "низкая",
    "total_complaints": 1,
    "noisy_complaints": 0,
    "noise_sources": [
      "строительные работы",
      "Строительные работы"
    ],
    "last_check_date": "29.09.2016",
    "noise_ratio": 0.0
  },
  {
    "latitude": 55.810607,
    "longitude": 37.793382,
    "address": "Щёлковское шоссе, дом 60",
    "is_noisy": false,
    "complaint_frequency": "низкая",
    "total_complaints": 1,
    "noisy_complaints": 0,
    "noise_sources": [
      "строительные работы",
      "Строительные работы"
    ],
    "last_check_date": "28.09.2016",
    "noise_ratio": 0.0
  },
  {
    "latitude": 55.837965,
    "longitude": 37.457358,
    "address": "Лодочная улица, дом 9, корпус 3",
    "is_noisy": false,
    "complaint_frequency": "низкая",
    "total_complaints": 1,
    "noisy_complaints": 0,
    "noise_sources": [
      "строительные работы",
      "Строительные работы"
    ],
    "last_check_date": "16.09.2016",
    "noise_ratio": 0.0
  },
  {
    "latitude": 55.847245,
    "longitude": 37.654781,
    "address": "Снежная улица, дом 1",
    "is_noisy": false,
    "complaint_frequency": "низкая",
    "total_complaints": 1,
    "noisy_complaints": 0,
    "noise_sources": [
      "строительные работы",
      "Строительные работы"
    ],
    "last_check_date": "28.09.2016",
    "noise_ratio": 0.0
  },
  {
    "latitude": 55.774781,
    "longitude": 37.704987,
    "address": "улица Госпитальный Вал, дом 5, корпус 18",
    "is_noisy": false,
    "complaint_frequency": "низкая",
    "total_complaints": 2,
    "noisy_complaints": 1,
    "noise_sources": [
      "строительные работы",
      "автотранспорт",
      "Строительные работы"
    ],
    "last_check_date": "12.01.2017",
    "noise_ratio": 0.5
  },
  {
    "latitude": 55.603319,
    "longitude": 37.588808,
    "address": "Чертановская улица, дом 54, корпус 1",
    "is_noisy": false,
    "complaint_frequency": "низкая",
    "total_complaints": 1,
    "noisy_complaints": 0,
    "noise_sources": [
      "строительные работы",
      "Строительные работы"
    ],
    "last_check_date": "20.09.2016",
    "noise_ratio": 0.0
  },
  {
    "latitude": 55.396501,
    "longitude": 36.906634,
    "address": "деревня Архангельское, СНТ «Гудок»",
    "is_noisy": true,
    "complaint_frequency": "низкая",
    "total_complaints": 1,
    "noisy_complaints": 1,
    "noise_sources": [
      "Железнодорожный транспорт, Погрузочно-разгрузочные работы на объектах РЖД"
    ],
    "last_check_date": "03.09.2016",
    "noise_ratio": 1.0
  },
  {
    "latitude": 55.641915,
    "longitude": 37.789411,
    "address": "1-й квартал Капотня, дом 4",
    "is_noisy": true,
    "complaint_frequency": "низкая",
    "total_complaints": 2,
    "noisy_complaints": 2,
    "noise_sources": [
      "автотранспорт",
      "Промышленное предприятие"
    ],
    "last_check_date": "21.10.2016",
    "noise_ratio": 1.0
  },
  {
    "latitude": 55.592378,
    "longitude": 37.604232,
    "address": "Улица Газопровод, дом 3, корпус 1",
    "is_noisy": false,
    "complaint_frequency": "высокая",
    "total_complaints": 5,
    "noisy_complaints": 1,
    "noise_sources": [
      "строительные работы",
      "автотранспорт",
      "Строительные работы"
    ],
    "last_check_date": "30.03.2017",
    "noise_ratio": 0.2
  },
  {
    "latitude": 55.621469,
    "longitude": 37.606875,
    "address": "Днепропетровская улица, дом 1",
    "is_noisy": false,
    "complaint_frequency": "низкая",
    "total_complaints": 1,
    "noisy_complaints": 0,
    "noise_sources": [
      "строительные работы",
      "Строительные работы"
    ],
    "last_check_date": "06.10.2016",
    "noise_ratio": 0.0
  },
  {
    "latitude": 55.606741,
    "longitude": 37.622729,
    "address": "Дорожная улица, дом 14, корпус 1",
    "is_noisy": false,
    "complaint_frequency": "низкая",
    "total_complaints": 1,
    "noisy_complaints": 0,
    "noise_sources": [
      "строительные работы",
      "Строительные работы"
    ],
    "last_check_date": "06.10.2016",
    "noise_ratio": 0.0
  },
  {
    "latitude": 55.507667,
    "longitude": 37.562766,
    "address": "ГО Щербинка, Железнодорожная улица, дом 3",
    "is_noisy": false,
    "complaint_frequency": "низкая",
    "total_complaints": 1,
    "noisy_complaints": 0,
    "noise_sources": [
      "строительные работы",
      "Строительные работы"
    ],
    "last_check_date": "06.10.2016",
    "noise_ratio": 0.0
  },
  {
    "latitude": 55.64708,
    "longitude": 37.47981,
    "address": "Ленинский проспект, дом 123",
    "is_noisy": true,
    "complaint_frequency": "средняя",
    "total_complaints": 3,
    "noisy_complaints": 2,
    "noise_sources": [
      "строительные работы",
      "автотранспорт",
      "Строительные работы"
    ],
    "last_check_date": "26.03.2017",
    "noise_ratio": 0.67
  },
  {
    "latitude": 55.558651,
    "longitude": 37.557709,
    "address": "Старокрымская улица, дом 13, строение 1",
    "is_noisy": false,
    "complaint_frequency": "низкая",
    "total_complaints": 1,
    "noisy_complaints": 0,
    "noise_sources": [
      "строительные работы",
      "Строительные работы"
    ],
    "last_check_date": "06.10.2016",
    "noise_ratio": 0.0
  },
  {
    "latitude": 55.613316,
    "longitude": 37.722091,
    "address": "Улица Генерала Белова, дом 33/19",
    "is_noisy": true,
    "complaint_frequency": "низкая",
    "total_complaints": 2,
    "noisy_complaints": 2,
    "noise_sources": [
      "Строительные работы"
    ],
    "last_check_date": "05.10.2016",
    "noise_ratio": 1.0
  },
  {
    "latitude": 55.507973,
    "longitude": 37.584308,
    "address": "Типографская улица, дом 14",
    "is_noisy": false,
    "complaint_frequency": "низкая",
    "total_complaints": 1,
    "noisy_complaints": 0,
    "noise_sources": [
      "строительные работы",
      "Строительные работы"
    ],
    "last_check_date": "06.10.2016",
    "noise_ratio": 0.0
  },
  {
    "latitude": 55.550071,
    "longitude": 37.32889,
    "address": "Улица Светлый бульвар, дом 10, корпус 1",
    "is_noisy": false,
    "complaint_frequency": "низкая",
    "total_complaints": 1,
    "noisy_complaints": 0,
    "noise_sources": [
      "строительные работы",
      "Строительные работы"
    ],
    "last_check_date": "01.10.2016",
    "noise_ratio": 0.0
  },
  {
    "latitude": 55.71966,
    "longitude": 37.42443,
    "address": "Можайское шоссе, дом 27",
    "is_noisy": false,
    "complaint_frequency": "высокая",
    "total_complaints": 6,
    "noisy_complaints": 3,
    "noise_sources": [
      "строительные работы",
      "автотранспорт",
      "Строительные работы"
    ],
    "last_check_date": "23.03.2017",
    "noise_ratio": 0.5
  },
  {
    "latitude": 55.764298,
    "longitude": 37.641971,
    "address": "Гусятников переулок, дом 9",
    "is_noisy": false,
    "complaint_frequency": "низкая",
    "total_complaints": 1,
    "noisy_complaints": 0,
    "noise_sources": [
      "строительные работы",
      "Строительные работы"
    ],
    "last_check_date": "08.10.2016",
    "noise_ratio": 0.0
  },
  {
    "latitude": 55.76964,
    "longitude": 37.65013,
    "address": "Садовая-Спасская улица, дом 21/1",
    "is_noisy": false,
    "complaint_frequency": "средняя",
    "total_complaints": 4,
    "noisy_complaints": 2,
    "noise_sources": [
      "Строительные работы",
      "Дорожно-ремонтные работы",
      "дорожно-ремонтные работы",
      "строительные работы",
      "автотранспорт"
    ],
    "last_check_date": "19.05.2017",
    "noise_ratio": 0.5
  },
  {
    "latitude": 55.760276,
    "longitude": 37.646804,
    "address": "Чистопрудный бульвар, дом 23, строение 1",
    "is_noisy": true,
    "complaint_frequency": "низкая",
    "total_complaints": 1,
    "noisy_complaints": 1,
    "noise_sources": [
      "Генераторная установка на стройобъекте",
      "генераторная установка"
    ],
    "last_check_date": "08.10.2016",
    "noise_ratio": 1.0
  },
  {
    "latitude": 55.767438,
    "longitude": 37.631083,
    "address": "Печатников переулок, дом 28",
    "is_noisy": false,
    "complaint_frequency": "низкая",
    "total_complaints": 1,
    "noisy_complaints": 0,
    "noise_sources": [
      "Дорожно-ремонтные работы",
      "дорожно-ремонтные работы"
    ],
    "last_check_date": "08.10.2016",
    "noise_ratio": 0.0
  },
  {
    "latitude": 55.67476,
    "longitude": 37.467135,
    "address": "Мичуринский Проспект ул., Олимпийская Деревня, д. 8",
    "is_noisy": true,
    "complaint_frequency": "низкая",
    "total_complaints": 1,
    "noisy_complaints": 1,
    "noise_sources": [
      "Строительные работы"
    ],
    "last_check_date": "06.10.2016",
    "noise_ratio": 1.0
  },
  {
    "latitude": 55.677052,
    "longitude": 37.74728,
    "address": "Краснодарская улица, дом 16",
    "is_noisy": false,
    "complaint_frequency": "низкая",
    "total_complaints": 1,
    "noisy_complaints": 0,
    "noise_sources": [
      "Дорожно-ремонтные работы",
      "дорожно-ремонтные работы"
    ],
    "last_check_date": "10.10.2016",
    "noise_ratio": 0.0
  },
  {
    "latitude": 55.677976,
    "longitude": 37.754592,
    "address": "Краснодарская улица, дом 27/13",
    "is_noisy": false,
    "complaint_frequency": "низкая",
    "total_complaints": 1,
    "noisy_complaints": 0,
    "noise_sources": [
      "Дорожно-ремонтные работы",
      "дорожно-ремонтные работы"
    ],
    "last_check_date": "10.10.2016",
    "noise_ratio": 0.0
  },
  {
    "latitude": 55.693216,
    "longitude": 37.738593,
    "address": "улица Шкулёва, дом 5",
    "is_noisy": true,
    "complaint_frequency": "низкая",
    "total_complaints": 1,
    "noisy_complaints": 1,
    "noise_sources": [
      "Генераторная установка",
      "автотранспорт"
    ],
    "last_check_date": "20.10.2016",
    "noise_ratio": 1.0
  },
  {
    "latitude": 55.801183,
    "longitude": 37.494653,
    "address": "Большой Волоколамский проезд, дом 12, корпус 1, строение 1",
    "is_noisy": true,
    "complaint_frequency": "низкая",
    "total_complaints": 1,
    "noisy_complaints": 1,
    "noise_sources": [
      "автотранспорт",
      "Кафе, ресторан, клуб, Музыка",
      "кафе"
    ],
    "last_check_date": "05.10.2016",
    "noise_ratio": 1.0
  },
  {
    "latitude": 55.642164,
    "longitude": 37.484137,
    "address": "улица Академика Бакулева, дом 10",
    "is_noisy": true,
    "complaint_frequency": "низкая",
    "total_complaints": 1,
    "noisy_complaints": 1,
    "noise_sources": [
      "Генераторная установка"
    ],
    "last_check_date": "18.10.2016",
    "noise_ratio": 1.0
  },
  {
    "latitude": 55.753058,
    "longitude": 37.58579,
    "address": "улица Новый Арбат, дом 26",
    "is_noisy": true,
    "complaint_frequency": "низкая",
    "total_complaints": 1,
    "noisy_complaints": 1,
    "noise_sources": [
      "Генераторная установка"
    ],
    "last_check_date": "19.10.2016",
    "noise_ratio": 1.0
  },
  {
    "latitude": 55.693434,
    "longitude": 37.571803,
    "address": "улица Ферсмана, дом 11, корпус 1",
    "is_noisy": true,
    "complaint_frequency": "низкая",
    "total_complaints": 1,
    "noisy_complaints": 1,
    "noise_sources": [
      "автотранспорт",
      "Насосное оборудование, компрессор"
    ],
    "last_check_date": "24.10.2016",
    "noise_ratio": 1.0
  },
  {
    "latitude": 55.793009,
    "longitude": 37.601412,
    "address": "Сущевский Вал ул., д. 23",
    "is_noisy": false,
    "complaint_frequency": "средняя",
    "total_complaints": 4,
    "noisy_complaints": 1,
    "noise_sources": [
      "Дорожно-ремонтные работы",
      "Строительные работы",
      "дорожно-ремонтные работы",
      "строительные работы",
      "Генераторная установка",
      "автотранспорт"
    ],
    "last_check_date": "31.05.2021",
    "noise_ratio": 0.25
  },
  {
    "latitude": 55.641539,
    "longitude": 37.618201,
    "address": "Балаклавский проспект, дом 2, корпус 2",
    "is_noisy": false,
    "complaint_frequency": "низкая",
    "total_complaints": 2,
    "noisy_complaints": 0,
    "noise_sources": [
      "строительные работы",
      "Строительные работы"
    ],
    "last_check_date": "20.10.2016",
    "noise_ratio": 0.0
  },
  {
    "latitude": 55.676676,
    "longitude": 37.759686,
    "address": "Краснодарская улица, дом 44/13",
    "is_noisy": false,
    "complaint_frequency": "низкая",
    "total_complaints": 1,
    "noisy_complaints": 0,
    "noise_sources": [
      "Дорожно-ремонтные работы",
      "дорожно-ремонтные работы"
    ],
    "last_check_date": "10.10.2016",
    "noise_ratio": 0.0
  },
  {
    "latitude": 55.721904,
    "longitude": 37.736626,
    "address": "Грайвороново квартал 90А, корпус 11",
    "is_noisy": false,
    "complaint_frequency": "низкая",
    "total_complaints": 1,
    "noisy_complaints": 0,
    "noise_sources": [
      "строительные работы",
      "Строительные работы"
    ],
    "last_check_date": "11.10.2016",
    "noise_ratio": 0.0
  },
  {
    "latitude": 55.785873,
    "longitude": 37.624274,
    "address": "Олимпийский проспект, дом 20",
    "is_noisy": false,
    "complaint_frequency": "низкая",
    "total_complaints": 1,
    "noisy_complaints": 0,
    "noise_sources": [
      "строительные работы",
      "Строительные работы"
    ],
    "last_check_date": "21.10.2016",
    "noise_ratio": 0.0
  },
  {
    "latitude": 55.732433,
    "longitude": 37.616144,
    "address": "1-й Спасоналивковский переулок, дом 17, корпус 1",
    "is_noisy": false,
    "complaint_frequency": "низкая",
    "total_complaints": 2,
    "noisy_complaints": 0,
    "noise_sources": [
      "строительные работы",
      "Строительные работы"
    ],
    "last_check_date": "23.10.2016",
    "noise_ratio": 0.0
  },
  {
    "latitude": 55.700075,
    "longitude": 37.929953,
    "address": "улица Недорубова, дом 5",
    "is_noisy": false,
    "complaint_frequency": "низкая",
    "total_complaints": 1,
    "noisy_complaints": 0,
    "noise_sources": [
      "строительные работы",
      "Строительные работы"
    ],
    "last_check_date": "11.10.2016",
    "noise_ratio": 0.0
  },
  {
    "latitude": 55.71909,
    "longitude": 37.7879,
    "address": "Рязанский проспект, дом 71, корпус 2",
    "is_noisy": false,
    "complaint_frequency": "низкая",
    "total_complaints": 1,
    "noisy_complaints": 0,
    "noise_sources": [
      "строительные работы",
      "Строительные работы"
    ],
    "last_check_date": "11.10.2016",
    "noise_ratio": 0.0
  },
  {
    "latitude": 55.69868,
    "longitude": 37.92679,
    "address": "улица Ухтомского Ополчения, дом 8",
    "is_noisy": false,
    "complaint_frequency": "низкая",
    "total_complaints": 1,
    "noisy_complaints": 0,
    "noise_sources": [
      "строительные работы",
      "Строительные работы"
    ],
    "last_check_date": "11.10.2016",
    "noise_ratio": 0.0
  },
  {
    "latitude": 55.698912,
    "longitude": 37.921438,
    "address": "улица Льва Яшина, дом 1",
    "is_noisy": false,
    "complaint_frequency": "низкая",
    "total_complaints": 1,
    "noisy_complaints": 0,
    "noise_sources": [
      "строительные работы",
      "Строительные работы"
    ],
    "last_check_date": "11.10.2016",
    "noise_ratio": 0.0
  },
  {
    "latitude": 55.741531,
    "longitude": 37.646848,
    "address": "4-й Котельнический переулок, дом 3",
    "is_noisy": false,
    "complaint_frequency": "низкая",
    "total_complaints": 1,
    "noisy_complaints": 0,
    "noise_sources": [
      "строительные работы",
      "Строительные работы"
    ],
    "last_check_date": "12.10.2016",
    "noise_ratio": 0.0
  },
  {
    "latitude": 55.743715,
    "longitude": 37.662641,
    "address": "улица Александра Солженицына, дом 24",
    "is_noisy": false,
    "complaint_frequency": "низкая",
    "total_complaints": 1,
    "noisy_complaints": 0,
    "noise_sources": [
      "Дорожно-ремонтные работы",
      "дорожно-ремонтные работы"
    ],
    "last_check_date": "12.10.2016",
    "noise_ratio": 0.0
  },
  {
    "latitude": 55.70953,
    "longitude": 37.643794,
    "address": "Даниловская набережная, дом 2, корпус 3",
    "is_noisy": true,
    "complaint_frequency": "низкая",
    "total_complaints": 1,
    "noisy_complaints": 1,
    "noise_sources": [
      "Строительные работы"
    ],
    "last_check_date": "13.10.2016",
    "noise_ratio": 1.0
  },
  {
    "latitude": 55.777899,
    "longitude": 37.552669,
    "address": "Беговой проезд, дом 11",
    "is_noisy": true,
    "complaint_frequency": "низкая",
    "total_complaints": 2,
    "noisy_complaints": 2,
    "noise_sources": [
      "автотранспорт",
      "Генераторная установка на стройобъекте"
    ],
    "last_check_date": "26.10.2016",
    "noise_ratio": 1.0
  },
  {
    "latitude": 55.730862,
    "longitude": 37.641629,
    "address": "Кожевническая улица, дом 1",
    "is_noisy": true,
    "complaint_frequency": "низкая",
    "total_complaints": 2,
    "noisy_complaints": 2,
    "noise_sources": [
      "автотранспорт",
      "Строительные работы"
    ],
    "last_check_date": "22.11.2016",
    "noise_ratio": 1.0
  },
  {
    "latitude": 55.662999,
    "longitude": 37.59939,
    "address": "Одесская улица, дом 5",
    "is_noisy": true,
    "complaint_frequency": "низкая",
    "total_complaints": 1,
    "noisy_complaints": 1,
    "noise_sources": [
      "Строительные работы"
    ],
    "last_check_date": "13.10.2016",
    "noise_ratio": 1.0
  },
  {
    "latitude": 55.777915,
    "longitude": 37.52042,
    "address": "Хорошевское шоссе, дом 84, корпус 1",
    "is_noisy": true,
    "complaint_frequency": "низкая",
    "total_complaints": 1,
    "noisy_complaints": 1,
    "noise_sources": [
      "Генераторная установка",
      "автотранспорт"
    ],
    "last_check_date": "06.10.2016",
    "noise_ratio": 1.0
  },
  {
    "latitude": 55.678621,
    "longitude": 37.517015,
    "address": "улица Кравченко, дом 12",
    "is_noisy": false,
    "complaint_frequency": "низкая",
    "total_complaints": 1,
    "noisy_complaints": 0,
    "noise_sources": [
      "Дорожно-ремонтные работы",
      "дорожно-ремонтные работы"
    ],
    "last_check_date": "20.10.2016",
    "noise_ratio": 0.0
  },
  {
    "latitude": 55.665274,
    "longitude": 37.514338,
    "address": "Ленинский проспект, дом 103",
    "is_noisy": false,
    "complaint_frequency": "низкая",
    "total_complaints": 1,
    "noisy_complaints": 0,
    "noise_sources": [
      "строительные работы",
      "Строительные работы"
    ],
    "last_check_date": "20.10.2016",
    "noise_ratio": 0.0
  },
  {
    "latitude": 55.666201,
    "longitude": 37.523036,
    "address": "улица Новаторов, дом 18, корпус 2",
    "is_noisy": false,
    "complaint_frequency": "низкая",
    "total_complaints": 1,
    "noisy_complaints": 0,
    "noise_sources": [
      "Дорожно-ремонтные работы",
      "дорожно-ремонтные работы"
    ],
    "last_check_date": "20.10.2016",
    "noise_ratio": 0.0
  },
  {
    "latitude": 55.646426,
    "longitude": 37.494836,
    "address": "улица Островитянова, дом 5, корпус 2",
    "is_noisy": false,
    "complaint_frequency": "низкая",
    "total_complaints": 1,
    "noisy_complaints": 0,
    "noise_sources": [
      "строительные работы",
      "Строительные работы"
    ],
    "last_check_date": "20.10.2016",
    "noise_ratio": 0.0
  },
  {
    "latitude": 55.64415,
    "longitude": 37.49745,
    "address": "улица Островитянова, дом 9, корпус 1",
    "is_noisy": false,
    "complaint_frequency": "низкая",
    "total_complaints": 1,
    "noisy_complaints": 0,
    "noise_sources": [
      "строительные работы",
      "Строительные работы"
    ],
    "last_check_date": "20.10.2016",
    "noise_ratio": 0.0
  },
  {
    "latitude": 55.633033,
    "longitude": 37.517823,
    "address": "Профсоюзная улица, дом 124",
    "is_noisy": false,
    "complaint_frequency": "низкая",
    "total_complaints": 1,
    "noisy_complaints": 0,
    "noise_sources": [
      "строительные работы",
      "Строительные работы"
    ],
    "last_check_date": "20.10.2016",
    "noise_ratio": 0.0
  },
  {
    "latitude": 55.631519,
    "longitude": 37.516368,
    "address": "Профсоюзная улица, дом 128",
    "is_noisy": true,
    "complaint_frequency": "низкая",
    "total_complaints": 1,
    "noisy_complaints": 1,
    "noise_sources": [
      "Генераторная установка на стройобъекте",
      "генераторная установка"
    ],
    "last_check_date": "20.10.2016",
    "noise_ratio": 1.0
  },
  {
    "latitude": 55.778446,
    "longitude": 37.543778,
    "address": "улица Поликарпова, дом 25",
    "is_noisy": false,
    "complaint_frequency": "низкая",
    "total_complaints": 1,
    "noisy_complaints": 0,
    "noise_sources": [
      "Дорожно-ремонтные работы",
      "дорожно-ремонтные работы"
    ],
    "last_check_date": "26.10.2016",
    "noise_ratio": 0.0
  },
  {
    "latitude": 55.779757,
    "longitude": 37.535233,
    "address": "улица Полины Осипенко, дом 10, корпус 1",
    "is_noisy": false,
    "complaint_frequency": "низкая",
    "total_complaints": 1,
    "noisy_complaints": 0,
    "noise_sources": [
      "Дорожно-ремонтные работы",
      "дорожно-ремонтные работы"
    ],
    "last_check_date": "26.10.2016",
    "noise_ratio": 0.0
  },
  {
    "latitude": 55.772299,
    "longitude": 37.4826,
    "address": "улица Демьяна Бедного, дом 3, корпус 7",
    "is_noisy": false,
    "complaint_frequency": "низкая",
    "total_complaints": 1,
    "noisy_complaints": 0,
    "noise_sources": [
      "Дорожно-ремонтные работы",
      "дорожно-ремонтные работы"
    ],
    "last_check_date": "27.10.2016",
    "noise_ratio": 0.0
  },
  {
    "latitude": 55.775322,
    "longitude": 37.471255,
    "address": "проспект Маршала Жукова, дом 39, корпус 1",
    "is_noisy": false,
    "complaint_frequency": "низкая",
    "total_complaints": 1,
    "noisy_complaints": 0,
    "noise_sources": [
      "строительные работы",
      "Строительные работы"
    ],
    "last_check_date": "27.10.2016",
    "noise_ratio": 0.0
  },
  {
    "latitude": 55.775251,
    "longitude": 37.460089,
    "address": "Карамышевская набережная, дом 60, корпус 1",
    "is_noisy": false,
    "complaint_frequency": "низкая",
    "total_complaints": 1,
    "noisy_complaints": 0,
    "noise_sources": [
      "строительные работы",
      "Строительные работы"
    ],
    "last_check_date": "27.10.2016",
    "noise_ratio": 0.0
  },
  {
    "latitude": 55.771525,
    "longitude": 37.47783,
    "address": "улица Народного Ополчения, дом 10, корпус 2",
    "is_noisy": false,
    "complaint_frequency": "низкая",
    "total_complaints": 1,
    "noisy_complaints": 0,
    "noise_sources": [
      "строительные работы",
      "Строительные работы"
    ],
    "last_check_date": "27.10.2016",
    "noise_ratio": 0.0
  },
  {
    "latitude": 55.771535,
    "longitude": 37.471955,
    "address": "улица Народного Ополчения, дом 9, корпус 4",
    "is_noisy": true,
    "complaint_frequency": "низкая",
    "total_complaints": 1,
    "noisy_complaints": 1,
    "noise_sources": [
      "Строительные работы"
    ],
    "last_check_date": "27.10.2016",
    "noise_ratio": 1.0
  },
  {
    "latitude": 55.780092,
    "longitude": 37.529762,
    "address": "улица Полины Осипенко, дом 18, корпус 1",
    "is_noisy": false,
    "complaint_frequency": "низкая",
    "total_complaints": 1,
    "noisy_complaints": 0,
    "noise_sources": [
      "строительные работы",
      "Строительные работы"
    ],
    "last_check_date": "27.10.2016",
    "noise_ratio": 0.0
  },
  {
    "latitude": 55.671062,
    "longitude": 37.752535,
    "address": "Совхозная улица, дом 10, корпус 1",
    "is_noisy": false,
    "complaint_frequency": "низкая",
    "total_complaints": 2,
    "noisy_complaints": 0,
    "noise_sources": [
      "строительные работы",
      "Строительные работы"
    ],
    "last_check_date": "22.12.2016",
    "noise_ratio": 0.0
  },
  {
    "latitude": 55.640421,
    "longitude": 37.61026,
    "address": "Балаклавский проспект, дом 5",
    "is_noisy": false,
    "complaint_frequency": "низкая",
    "total_complaints": 1,
    "noisy_complaints": 0,
    "noise_sources": [
      "строительные работы",
      "Строительные работы"
    ],
    "last_check_date": "10.10.2016",
    "noise_ratio": 0.0
  },
  {
    "latitude": 55.738951,
    "longitude": 37.503612,
    "address": "улица Барклая, дом 5, корпус1",
    "is_noisy": false,
    "complaint_frequency": "низкая",
    "total_complaints": 1,
    "noisy_complaints": 0,
    "noise_sources": [
      "строительные работы",
      "Строительные работы"
    ],
    "last_check_date": "10.10.2016",
    "noise_ratio": 0.0
  },
  {
    "latitude": 55.698878,
    "longitude": 37.621282,
    "address": "Варшавское шоссе, дом 13",
    "is_noisy": false,
    "complaint_frequency": "низкая",
    "total_complaints": 1,
    "noisy_complaints": 0,
    "noise_sources": [
      "строительные работы",
      "Строительные работы"
    ],
    "last_check_date": "10.10.2016",
    "noise_ratio": 0.0
  },
  {
    "latitude": 55.676748,
    "longitude": 37.630059,
    "address": "Варшавское шоссе, дом 55, корпус 4",
    "is_noisy": false,
    "complaint_frequency": "низкая",
    "total_complaints": 1,
    "noisy_complaints": 0,
    "noise_sources": [
      "строительные работы",
      "Строительные работы"
    ],
    "last_check_date": "10.10.2016",
    "noise_ratio": 0.0
  },
  {
    "latitude": 55.721321,
    "longitude": 37.509038,
    "address": "улица Довженко, дом 12, корпус 2",
    "is_noisy": false,
    "complaint_frequency": "низкая",
    "total_complaints": 1,
    "noisy_complaints": 0,
    "noise_sources": [
      "строительные работы",
      "Строительные работы"
    ],
    "last_check_date": "10.10.2016",
    "noise_ratio": 0.0
  },
  {
    "latitude": 55.753144,
    "longitude": 37.523833,
    "address": "Мукомольный проезд, дом 4, строение 1",
    "is_noisy": false,
    "complaint_frequency": "низкая",
    "total_complaints": 1,
    "noisy_complaints": 0,
    "noise_sources": [
      "строительные работы",
      "Строительные работы"
    ],
    "last_check_date": "10.10.2016",
    "noise_ratio": 0.0
  },
  {
    "latitude": 55.690349,
    "longitude": 37.693543,
    "address": "Нагатинская набережная, дом 70",
    "is_noisy": false,
    "complaint_frequency": "низкая",
    "total_complaints": 1,
    "noisy_complaints": 0,
    "noise_sources": [
      "строительные работы",
      "Строительные работы"
    ],
    "last_check_date": "10.10.2016",
    "noise_ratio": 0.0
  },
  {
    "latitude": 55.718304,
    "longitude": 37.817735,
    "address": "улица Красный Казанец, дом 19, корпус 1",
    "is_noisy": false,
    "complaint_frequency": "низкая",
    "total_complaints": 1,
    "noisy_complaints": 0,
    "noise_sources": [
      "строительные работы",
      "Строительные работы"
    ],
    "last_check_date": "11.10.2016",
    "noise_ratio": 0.0
  },
  {
    "latitude": 55.732063,
    "longitude": 37.711869,
    "address": "Новохохловская улица, дом 3",
    "is_noisy": false,
    "complaint_frequency": "низкая",
    "total_complaints": 1,
    "noisy_complaints": 0,
    "noise_sources": [
      "Дорожно-ремонтные работы",
      "дорожно-ремонтные работы"
    ],
    "last_check_date": "11.10.2016",
    "noise_ratio": 0.0
  },
  {
    "latitude": 55.690349,
    "longitude": 37.581846,
    "address": "улица Гримау, дом 5/1, корпус 3",
    "is_noisy": true,
    "complaint_frequency": "низкая",
    "total_complaints": 1,
    "noisy_complaints": 1,
    "noise_sources": [
      "Дорожно-ремонтные работы"
    ],
    "last_check_date": "13.10.2016",
    "noise_ratio": 1.0
  },
  {
    "latitude": 55.704641,
    "longitude": 37.571543,
    "address": "Ленинский проспект, дом 38",
    "is_noisy": false,
    "complaint_frequency": "средняя",
    "total_complaints": 3,
    "noisy_complaints": 0,
    "noise_sources": [
      "строительные работы",
      "Строительные работы"
    ],
    "last_check_date": "17.11.2016",
    "noise_ratio": 0.0
  },
  {
    "latitude": 55.718116,
    "longitude": 37.645267,
    "address": "1-й Павелецкий проезд, дом 1",
    "is_noisy": false,
    "complaint_frequency": "низкая",
    "total_complaints": 1,
    "noisy_complaints": 0,
    "noise_sources": [
      "строительные работы",
      "Строительные работы"
    ],
    "last_check_date": "13.10.2016",
    "noise_ratio": 0.0
  },
  {
    "latitude": 55.665639,
    "longitude": 37.547567,
    "address": "Профсоюзная улица, дом 64, корпус 2",
    "is_noisy": true,
    "complaint_frequency": "низкая",
    "total_complaints": 2,
    "noisy_complaints": 2,
    "noise_sources": [
      "автотранспорт",
      "Строительные работы"
    ],
    "last_check_date": "30.04.2017",
    "noise_ratio": 1.0
  },
  {
    "latitude": 55.712229,
    "longitude": 37.615012,
    "address": "улица Серпуховский Вал, дом 14",
    "is_noisy": false,
    "complaint_frequency": "низкая",
    "total_complaints": 1,
    "noisy_complaints": 0,
    "noise_sources": [
      "строительные работы",
      "Строительные работы"
    ],
    "last_check_date": "13.10.2016",
    "noise_ratio": 0.0
  },
  {
    "latitude": 55.637535,
    "longitude": 37.650981,
    "address": "Кантемировская улица, дом 53, корпус 1",
    "is_noisy": false,
    "complaint_frequency": "средняя",
    "total_complaints": 3,
    "noisy_complaints": 1,
    "noise_sources": [
      "Строительные работы",
      "Дорожно-ремонтные работы",
      "дорожно-ремонтные работы",
      "строительные работы",
      "автотранспорт"
    ],
    "last_check_date": "30.05.2018",
    "noise_ratio": 0.33
  },
  {
    "latitude": 55.67524,
    "longitude": 37.52792,
    "address": "улица Кравченко, дом 4, корпус 2",
    "is_noisy": false,
    "complaint_frequency": "низкая",
    "total_complaints": 1,
    "noisy_complaints": 0,
    "noise_sources": [
      "строительные работы",
      "Строительные работы"
    ],
    "last_check_date": "20.10.2016",
    "noise_ratio": 0.0
  },
  {
    "latitude": 55.666517,
    "longitude": 37.508006,
    "address": "Ленинский проспект, дом 140, строение 1",
    "is_noisy": false,
    "complaint_frequency": "низкая",
    "total_complaints": 1,
    "noisy_complaints": 0,
    "noise_sources": [
      "строительные работы",
      "Строительные работы"
    ],
    "last_check_date": "20.10.2016",
    "noise_ratio": 0.0
  },
  {
    "latitude": 55.6644,
    "longitude": 37.523815,
    "address": "улица Новаторов, дом 34, корпус 4",
    "is_noisy": false,
    "complaint_frequency": "низкая",
    "total_complaints": 1,
    "noisy_complaints": 0,
    "noise_sources": [
      "строительные работы",
      "Строительные работы"
    ],
    "last_check_date": "20.10.2016",
    "noise_ratio": 0.0
  },
  {
    "latitude": 55.622207,
    "longitude": 37.66185,
    "address": "Севанская улица, дом 8",
    "is_noisy": false,
    "complaint_frequency": "низкая",
    "total_complaints": 1,
    "noisy_complaints": 0,
    "noise_sources": [
      "Дорожно-ремонтные работы",
      "дорожно-ремонтные работы"
    ],
    "last_check_date": "20.10.2016",
    "noise_ratio": 0.0
  },
  {
    "latitude": 55.774016,
    "longitude": 37.617824,
    "address": "Садовая-Самотёчная улица, дом 13, строение 1",
    "is_noisy": false,
    "complaint_frequency": "низкая",
    "total_complaints": 1,
    "noisy_complaints": 0,
    "noise_sources": [
      "строительные работы",
      "Строительные работы"
    ],
    "last_check_date": "26.10.2016",
    "noise_ratio": 0.0
  },